[
  {
    "roomNumber": "6-к",
    "id": 0,
    "area": 222,
    "street": "улица Курчатова",
    "houseNumber": 36,
    "coordinates": {
      "latitude": 55.075967006825664,
      "longitude": 83.00595661137217
    }
  },
  {
    "roomNumber": "8-к",
    "id": 1,
    "area": 84,
    "street": "проезд Энергетиков",
    "houseNumber": 41,
    "coordinates": {
      "latitude": 55.08758197433443,
      "longitude": 82.80733659376035
    }
  },
  {
    "roomNumber": "6-к",
    "id": 2,
    "area": 33,
    "street": "Троллейная улица",
    "houseNumber": 12,
    "coordinates": {
      "latitude": 54.96514159357169,
      "longitude": 82.97116147357346
    }
  },
  {
    "roomNumber": "5-к",
    "id": 3,
    "area": 267,
    "street": "Дорога ",
    "houseNumber": 54,
    "coordinates": {
      "latitude": 54.9795161010192,
      "longitude": 82.98148196230571
    }
  },
  {
    "roomNumber": "6-к",
    "id": 4,
    "area": 282,
    "street": "улица Добролюбова",
    "houseNumber": 26,
    "coordinates": {
      "latitude": 55.07374169174609,
      "longitude": 82.88662919187044
    }
  },
  {
    "roomNumber": "3-к",
    "id": 5,
    "area": 64,
    "street": "улица Ватутина",
    "houseNumber": 31,
    "coordinates": {
      "latitude": 55.0331211277024,
      "longitude": 82.99026243057868
    }
  },
  {
    "roomNumber": "7-к",
    "id": 6,
    "area": 147,
    "street": "улица Покрышкина",
    "houseNumber": 13,
    "coordinates": {
      "latitude": 55.0848291434522,
      "longitude": 82.81036494728781
    }
  },
  {
    "roomNumber": "6-к",
    "id": 7,
    "area": 132,
    "street": "Военная улица",
    "houseNumber": 71,
    "coordinates": {
      "latitude": 55.05025610657566,
      "longitude": 82.94044278945438
    }
  },
  {
    "roomNumber": "6-к",
    "id": 8,
    "area": 214,
    "street": "улица Семьи Шамшиных",
    "houseNumber": 20,
    "coordinates": {
      "latitude": 55.04381443165164,
      "longitude": 82.85305660817983
    }
  },
  {
    "roomNumber": "3-к",
    "id": 9,
    "area": 60,
    "street": "Пролетарская улица",
    "houseNumber": 91,
    "coordinates": {
      "latitude": 54.98450668579408,
      "longitude": 82.81891872044416
    }
  },
  {
    "roomNumber": "10-к",
    "id": 10,
    "area": 186,
    "street": "Большевистская улица",
    "houseNumber": 58,
    "coordinates": {
      "latitude": 55.084871851692455,
      "longitude": 82.80070235444015
    }
  },
  {
    "roomNumber": "1-к",
    "id": 11,
    "area": 84,
    "street": "проспект Строителей",
    "houseNumber": 77,
    "coordinates": {
      "latitude": 55.01783603578585,
      "longitude": 82.82875298938148
    }
  },
  {
    "roomNumber": "4-к",
    "id": 12,
    "area": 80,
    "street": "проспект Академика Лаврентьева",
    "houseNumber": 35,
    "coordinates": {
      "latitude": 54.96951640798064,
      "longitude": 82.94379416822399
    }
  },
  {
    "roomNumber": "5-к",
    "id": 13,
    "area": 245,
    "street": "Морской проспект",
    "houseNumber": 69,
    "coordinates": {
      "latitude": 54.979912387607484,
      "longitude": 82.87675825789965
    }
  },
  {
    "roomNumber": "5-к",
    "id": 14,
    "area": 205,
    "street": "Жемчужная улица",
    "houseNumber": 16,
    "coordinates": {
      "latitude": 55.00659502059075,
      "longitude": 82.99416208612656
    }
  },
  {
    "roomNumber": "3-к",
    "id": 15,
    "area": 47,
    "street": "Университетский проспект",
    "houseNumber": 53,
    "coordinates": {
      "latitude": 55.08457911760405,
      "longitude": 82.93101162408705
    }
  },
  {
    "roomNumber": "7-к",
    "id": 16,
    "area": 233,
    "street": "проспект Дзержинского",
    "houseNumber": 44,
    "coordinates": {
      "latitude": 55.063209377144574,
      "longitude": 82.84140965826387
    }
  },
  {
    "roomNumber": "8-к",
    "id": 17,
    "area": 198,
    "street": "улица Гоголя",
    "houseNumber": 34,
    "coordinates": {
      "latitude": 55.03404429283568,
      "longitude": 82.99739852032647
    }
  },
  {
    "roomNumber": "10-к",
    "id": 18,
    "area": 106,
    "street": "улица Селезнёва",
    "houseNumber": 79,
    "coordinates": {
      "latitude": 55.03588725741514,
      "longitude": 82.93846508363656
    }
  },
  {
    "roomNumber": "2-к",
    "id": 19,
    "area": 31,
    "street": "улица Богдана Хмельницкого",
    "houseNumber": 64,
    "coordinates": {
      "latitude": 55.03742753036398,
      "longitude": 82.95708061761763
    }
  },
  {
    "roomNumber": "6-к",
    "id": 20,
    "area": 269,
    "street": "Димитровский мост",
    "houseNumber": 96,
    "coordinates": {
      "latitude": 54.9760422945722,
      "longitude": 82.87657607182085
    }
  },
  {
    "roomNumber": "10-к",
    "id": 21,
    "area": 274,
    "street": "улица Котовского",
    "houseNumber": 49,
    "coordinates": {
      "latitude": 54.98101293479981,
      "longitude": 82.95328393485886
    }
  },
  {
    "roomNumber": "8-к",
    "id": 22,
    "area": 40,
    "street": "улица Никитина",
    "houseNumber": 60,
    "coordinates": {
      "latitude": 55.07463568479093,
      "longitude": 82.82111314961239
    }
  },
  {
    "roomNumber": "10-к",
    "id": 23,
    "area": 73,
    "street": "улица Доватора",
    "houseNumber": 3,
    "coordinates": {
      "latitude": 55.0596093943433,
      "longitude": 82.93897727736812
    }
  },
  {
    "roomNumber": "4-к",
    "id": 24,
    "area": 165,
    "street": "улица Бориса Богаткова",
    "houseNumber": 86,
    "coordinates": {
      "latitude": 54.96362303281148,
      "longitude": 82.83139056756325
    }
  },
  {
    "roomNumber": "4-к",
    "id": 25,
    "area": 252,
    "street": "улица Есенина",
    "houseNumber": 63,
    "coordinates": {
      "latitude": 55.04079279195262,
      "longitude": 82.99567432062456
    }
  },
  {
    "roomNumber": "5-к",
    "id": 26,
    "area": 81,
    "street": "площадь Олега Антонова",
    "houseNumber": 3,
    "coordinates": {
      "latitude": 55.02210148631227,
      "longitude": 82.90796081629593
    }
  },
  {
    "roomNumber": "6-к",
    "id": 27,
    "area": 222,
    "street": "улица Кошурникова",
    "houseNumber": 45,
    "coordinates": {
      "latitude": 55.08151405315477,
      "longitude": 82.86838104314032
    }
  },
  {
    "roomNumber": "8-к",
    "id": 28,
    "area": 214,
    "street": "Ипподромская улица",
    "houseNumber": 8,
    "coordinates": {
      "latitude": 55.074274714459776,
      "longitude": 83.03069741233429
    }
  },
  {
    "roomNumber": "6-к",
    "id": 29,
    "area": 36,
    "street": "улица Писарева",
    "houseNumber": 99,
    "coordinates": {
      "latitude": 55.06943067921836,
      "longitude": 82.84488314141197
    }
  },
  {
    "roomNumber": "4-к",
    "id": 30,
    "area": 177,
    "street": "площадь Калинина",
    "houseNumber": 32,
    "coordinates": {
      "latitude": 54.96261748832049,
      "longitude": 83.0074523560368
    }
  },
  {
    "roomNumber": "6-к",
    "id": 31,
    "area": 283,
    "street": "Мостовая улица",
    "houseNumber": 26,
    "coordinates": {
      "latitude": 54.99289777618102,
      "longitude": 82.89750860496663
    }
  },
  {
    "roomNumber": "2-к",
    "id": 32,
    "area": 185,
    "street": "Балтийская улица",
    "houseNumber": 73,
    "coordinates": {
      "latitude": 55.055455728401185,
      "longitude": 83.01040335808608
    }
  },
  {
    "roomNumber": "9-к",
    "id": 33,
    "area": 140,
    "street": "улица Восход",
    "houseNumber": 88,
    "coordinates": {
      "latitude": 55.06909814789149,
      "longitude": 82.80898536739817
    }
  },
  {
    "roomNumber": "9-к",
    "id": 34,
    "area": 293,
    "street": "Октябрьский мост",
    "houseNumber": 34,
    "coordinates": {
      "latitude": 55.048894528339524,
      "longitude": 82.84051179374967
    }
  },
  {
    "roomNumber": "2-к",
    "id": 35,
    "area": 261,
    "street": "Приморская улица",
    "houseNumber": 62,
    "coordinates": {
      "latitude": 55.050516338947375,
      "longitude": 82.95677776723934
    }
  },
  {
    "roomNumber": "9-к",
    "id": 36,
    "area": 70,
    "street": "Бердское шоссе",
    "houseNumber": 27,
    "coordinates": {
      "latitude": 55.07485480659366,
      "longitude": 82.90252823577124
    }
  },
  {
    "roomNumber": "10-к",
    "id": 37,
    "area": 204,
    "street": "Геодезическая улица",
    "houseNumber": 66,
    "coordinates": {
      "latitude": 54.96644169983603,
      "longitude": 82.83762899753255
    }
  },
  {
    "roomNumber": "1-к",
    "id": 38,
    "area": 43,
    "street": "площадь Карла Маркса",
    "houseNumber": 49,
    "coordinates": {
      "latitude": 55.04355151111758,
      "longitude": 83.01682600871484
    }
  },
  {
    "roomNumber": "10-к",
    "id": 39,
    "area": 50,
    "street": "улица Римского-Корсакова",
    "houseNumber": 85,
    "coordinates": {
      "latitude": 54.96589238319392,
      "longitude": 82.93554895765514
    }
  },
  {
    "roomNumber": "5-к",
    "id": 40,
    "area": 243,
    "street": "улица Пермитина",
    "houseNumber": 70,
    "coordinates": {
      "latitude": 55.03053151380135,
      "longitude": 82.87798332159079
    }
  },
  {
    "roomNumber": "5-к",
    "id": 41,
    "area": 85,
    "street": "Вертковская улица",
    "houseNumber": 65,
    "coordinates": {
      "latitude": 55.06864969423735,
      "longitude": 82.86772318913061
    }
  },
  {
    "roomNumber": "8-к",
    "id": 42,
    "area": 133,
    "street": "улица Авиастроителей",
    "houseNumber": 56,
    "coordinates": {
      "latitude": 55.058487770909345,
      "longitude": 82.8420588396647
    }
  },
  {
    "roomNumber": "3-к",
    "id": 43,
    "area": 111,
    "street": "Учительская улица",
    "houseNumber": 59,
    "coordinates": {
      "latitude": 55.07037233062141,
      "longitude": 82.94965602237224
    }
  },
  {
    "roomNumber": "8-к",
    "id": 44,
    "area": 34,
    "street": "Республиканская улица",
    "houseNumber": 57,
    "coordinates": {
      "latitude": 54.97180515300642,
      "longitude": 82.92829622412691
    }
  },
  {
    "roomNumber": "7-к",
    "id": 45,
    "area": 23,
    "street": "площадь Кондратюка",
    "houseNumber": 3,
    "coordinates": {
      "latitude": 54.98845162446303,
      "longitude": 82.96928678400138
    }
  },
  {
    "roomNumber": "5-к",
    "id": 46,
    "area": 68,
    "street": "Советская улица",
    "houseNumber": 21,
    "coordinates": {
      "latitude": 55.05752356257044,
      "longitude": 82.91934683944442
    }
  },
  {
    "roomNumber": "9-к",
    "id": 47,
    "area": 165,
    "street": "улица Урицкого",
    "houseNumber": 94,
    "coordinates": {
      "latitude": 55.001231647088446,
      "longitude": 82.98853759238422
    }
  },
  {
    "roomNumber": "5-к",
    "id": 48,
    "area": 221,
    "street": "проспект Димитрова",
    "houseNumber": 30,
    "coordinates": {
      "latitude": 55.04908129648338,
      "longitude": 82.88541664622211
    }
  },
  {
    "roomNumber": "8-к",
    "id": 49,
    "area": 273,
    "street": "площадь Трубникова",
    "houseNumber": 17,
    "coordinates": {
      "latitude": 55.036896170932074,
      "longitude": 82.98441599070226
    }
  },
  {
    "roomNumber": "2-к",
    "id": 50,
    "area": 219,
    "street": "Нарымская улица",
    "houseNumber": 15,
    "coordinates": {
      "latitude": 55.08375145751896,
      "longitude": 83.02264457101275
    }
  },
  {
    "roomNumber": "1-к",
    "id": 51,
    "area": 181,
    "street": "улица Сакко и Ванцетти",
    "houseNumber": 74,
    "coordinates": {
      "latitude": 55.07015925042731,
      "longitude": 82.92323938123994
    }
  },
  {
    "roomNumber": "10-к",
    "id": 52,
    "area": 89,
    "street": "Зыряновская улица",
    "houseNumber": 64,
    "coordinates": {
      "latitude": 55.03412925639671,
      "longitude": 83.02620707135667
    }
  },
  {
    "roomNumber": "1-к",
    "id": 53,
    "area": 266,
    "street": "улица Якушева",
    "houseNumber": 37,
    "coordinates": {
      "latitude": 54.97026272722566,
      "longitude": 82.87768250784205
    }
  },
  {
    "roomNumber": "10-к",
    "id": 54,
    "area": 296,
    "street": "улица Маковского",
    "houseNumber": 59,
    "coordinates": {
      "latitude": 54.9930922381312,
      "longitude": 82.9557181015743
    }
  },
  {
    "roomNumber": "2-к",
    "id": 55,
    "area": 262,
    "street": "улица Сибревкома",
    "houseNumber": 88,
    "coordinates": {
      "latitude": 55.008330672315076,
      "longitude": 83.03149716779518
    }
  },
  {
    "roomNumber": "6-к",
    "id": 56,
    "area": 15,
    "street": "Каинская улица",
    "houseNumber": 62,
    "coordinates": {
      "latitude": 54.99080409337516,
      "longitude": 82.82011581911767
    }
  },
  {
    "roomNumber": "3-к",
    "id": 57,
    "area": 242,
    "street": "улица Свердлова",
    "houseNumber": 71,
    "coordinates": {
      "latitude": 55.010485175453674,
      "longitude": 82.95611958933632
    }
  },
  {
    "roomNumber": "7-к",
    "id": 58,
    "area": 195,
    "street": "Октябрьская улица",
    "houseNumber": 33,
    "coordinates": {
      "latitude": 55.00230655770932,
      "longitude": 82.91746941542331
    }
  },
  {
    "roomNumber": "2-к",
    "id": 59,
    "area": 32,
    "street": "улица Максима Горького",
    "houseNumber": 50,
    "coordinates": {
      "latitude": 55.01179170088872,
      "longitude": 82.82121758272552
    }
  },
  {
    "roomNumber": "10-к",
    "id": 60,
    "area": 185,
    "street": "улица Революции",
    "houseNumber": 58,
    "coordinates": {
      "latitude": 54.988193061322086,
      "longitude": 82.80021188124577
    }
  },
  {
    "roomNumber": "3-к",
    "id": 61,
    "area": 228,
    "street": "улица Спартака",
    "houseNumber": 61,
    "coordinates": {
      "latitude": 55.040990404184086,
      "longitude": 82.95531211557626
    }
  },
  {
    "roomNumber": "5-к",
    "id": 62,
    "area": 66,
    "street": "Депутатская улица",
    "houseNumber": 97,
    "coordinates": {
      "latitude": 55.034873776408475,
      "longitude": 82.86891329233788
    }
  },
  {
    "roomNumber": "7-к",
    "id": 63,
    "area": 39,
    "street": "улица Щетинкина",
    "houseNumber": 56,
    "coordinates": {
      "latitude": 54.96366998739633,
      "longitude": 82.96916720557158
    }
  },
  {
    "roomNumber": "8-к",
    "id": 64,
    "area": 152,
    "street": "Сибирская улица",
    "houseNumber": 33,
    "coordinates": {
      "latitude": 55.00027163278997,
      "longitude": 82.84467393827153
    }
  },
  {
    "roomNumber": "6-к",
    "id": 65,
    "area": 145,
    "street": "улица Крылова",
    "houseNumber": 78,
    "coordinates": {
      "latitude": 55.04024610385502,
      "longitude": 82.98871785384777
    }
  },
  {
    "roomNumber": "6-к",
    "id": 66,
    "area": 81,
    "street": "улица 1905 года",
    "houseNumber": 51,
    "coordinates": {
      "latitude": 55.09155237528103,
      "longitude": 83.02789164936421
    }
  },
  {
    "roomNumber": "10-к",
    "id": 67,
    "area": 211,
    "street": "Железнодорожная улица",
    "houseNumber": 29,
    "coordinates": {
      "latitude": 54.998570834578764,
      "longitude": 82.8649406212484
    }
  },
  {
    "roomNumber": "8-к",
    "id": 68,
    "area": 98,
    "street": "улица Ленина",
    "houseNumber": 22,
    "coordinates": {
      "latitude": 55.016378614429556,
      "longitude": 82.81044123885167
    }
  },
  {
    "roomNumber": "4-к",
    "id": 69,
    "area": 280,
    "street": "улица Дмитрия Шамшурина",
    "houseNumber": 94,
    "coordinates": {
      "latitude": 54.99041413461642,
      "longitude": 82.93810415718887
    }
  },
  {
    "roomNumber": "3-к",
    "id": 70,
    "area": 295,
    "street": "площадь Гарина-Михайловского",
    "houseNumber": 39,
    "coordinates": {
      "latitude": 54.997467071416175,
      "longitude": 82.8713748881821
    }
  },
  {
    "roomNumber": "4-к",
    "id": 71,
    "area": 167,
    "street": "улица Движенцев",
    "houseNumber": 36,
    "coordinates": {
      "latitude": 54.99562615849532,
      "longitude": 83.00628280138778
    }
  },
  {
    "roomNumber": "8-к",
    "id": 72,
    "area": 19,
    "street": "улица Салтыкова-Щедрина",
    "houseNumber": 11,
    "coordinates": {
      "latitude": 55.08556950595361,
      "longitude": 83.00937053197846
    }
  },
  {
    "roomNumber": "7-к",
    "id": 73,
    "area": 116,
    "street": "Красноярская улица",
    "houseNumber": 91,
    "coordinates": {
      "latitude": 55.0591436861587,
      "longitude": 82.90046492560273
    }
  },
  {
    "roomNumber": "7-к",
    "id": 74,
    "area": 173,
    "street": "Комсомольский проспект",
    "houseNumber": 35,
    "coordinates": {
      "latitude": 55.05342123619422,
      "longitude": 82.92989794022711
    }
  },
  {
    "roomNumber": "3-к",
    "id": 75,
    "area": 269,
    "street": "улица Мичурина",
    "houseNumber": 68,
    "coordinates": {
      "latitude": 55.058463327443626,
      "longitude": 82.86879320693473
    }
  },
  {
    "roomNumber": "10-к",
    "id": 76,
    "area": 179,
    "street": "Брестская улица",
    "houseNumber": 63,
    "coordinates": {
      "latitude": 55.032472971994764,
      "longitude": 82.88799039505635
    }
  },
  {
    "roomNumber": "7-к",
    "id": 77,
    "area": 268,
    "street": "улица Бурденко",
    "houseNumber": 75,
    "coordinates": {
      "latitude": 55.05794246429228,
      "longitude": 82.88294621056023
    }
  },
  {
    "roomNumber": "5-к",
    "id": 78,
    "area": 117,
    "street": "улица Залесского",
    "houseNumber": 93,
    "coordinates": {
      "latitude": 55.05933527166835,
      "longitude": 82.95344869039188
    }
  },
  {
    "roomNumber": "8-к",
    "id": 79,
    "area": 298,
    "street": "Красный проспект",
    "houseNumber": 9,
    "coordinates": {
      "latitude": 55.03826199043942,
      "longitude": 82.79224170919437
    }
  },
  {
    "roomNumber": "8-к",
    "id": 80,
    "area": 172,
    "street": "улица Федосеева",
    "houseNumber": 96,
    "coordinates": {
      "latitude": 54.983886400716884,
      "longitude": 82.84441993275746
    }
  },
  {
    "roomNumber": "5-к",
    "id": 81,
    "area": 85,
    "street": "Каменская улица",
    "houseNumber": 71,
    "coordinates": {
      "latitude": 55.04520823015887,
      "longitude": 82.89735709289816
    }
  },
  {
    "roomNumber": "10-к",
    "id": 82,
    "area": 117,
    "street": "Ядринцевская улица",
    "houseNumber": 34,
    "coordinates": {
      "latitude": 54.989164368605124,
      "longitude": 82.85350079166035
    }
  },
  {
    "roomNumber": "10-к",
    "id": 83,
    "area": 82,
    "street": "Гурьевская улица",
    "houseNumber": 18,
    "coordinates": {
      "latitude": 54.96192948185719,
      "longitude": 82.81269135596237
    }
  },
  {
    "roomNumber": "4-к",
    "id": 84,
    "area": 101,
    "street": "Красноармейская улица",
    "houseNumber": 39,
    "coordinates": {
      "latitude": 55.004528055180685,
      "longitude": 82.92117030725252
    }
  },
  {
    "roomNumber": "4-к",
    "id": 85,
    "area": 283,
    "street": "улица Карла Либкнехта",
    "houseNumber": 98,
    "coordinates": {
      "latitude": 54.977384414977394,
      "longitude": 82.86113568077701
    }
  },
  {
    "roomNumber": "8-к",
    "id": 86,
    "area": 38,
    "street": "улица Короленко",
    "houseNumber": 2,
    "coordinates": {
      "latitude": 55.09099118777435,
      "longitude": 83.02954775538802
    }
  },
  {
    "roomNumber": "9-к",
    "id": 87,
    "area": 289,
    "street": "Коммунстроевская улица",
    "houseNumber": 65,
    "coordinates": {
      "latitude": 54.981554412540355,
      "longitude": 82.9983393383644
    }
  },
  {
    "roomNumber": "7-к",
    "id": 88,
    "area": 18,
    "street": "улица Далидовича",
    "houseNumber": 74,
    "coordinates": {
      "latitude": 55.02826998625335,
      "longitude": 82.9093826495568
    }
  },
  {
    "roomNumber": "4-к",
    "id": 89,
    "area": 276,
    "street": "улица Грибоедова",
    "houseNumber": 45,
    "coordinates": {
      "latitude": 55.03117004845349,
      "longitude": 82.83628556264634
    }
  },
  {
    "roomNumber": "9-к",
    "id": 90,
    "area": 128,
    "street": "улица Лескова",
    "houseNumber": 25,
    "coordinates": {
      "latitude": 55.00193757721158,
      "longitude": 82.79536662853518
    }
  },
  {
    "roomNumber": "3-к",
    "id": 91,
    "area": 184,
    "street": "улица Панфиловцев",
    "houseNumber": 78,
    "coordinates": {
      "latitude": 54.983514290334874,
      "longitude": 82.94006656146672
    }
  },
  {
    "roomNumber": "4-к",
    "id": 92,
    "area": 117,
    "street": "Красносельская улица",
    "houseNumber": 9,
    "coordinates": {
      "latitude": 55.03277726919489,
      "longitude": 82.8678092111794
    }
  },
  {
    "roomNumber": "10-к",
    "id": 93,
    "area": 252,
    "street": "Октябрьская магистраль",
    "houseNumber": 31,
    "coordinates": {
      "latitude": 54.98931090392347,
      "longitude": 82.96840095079443
    }
  },
  {
    "roomNumber": "6-к",
    "id": 94,
    "area": 180,
    "street": "улица Кирова",
    "houseNumber": 15,
    "coordinates": {
      "latitude": 55.012942163270175,
      "longitude": 82.99182944629084
    }
  },
  {
    "roomNumber": "1-к",
    "id": 95,
    "area": 97,
    "street": "улица Чаплыгина",
    "houseNumber": 37,
    "coordinates": {
      "latitude": 54.98620830139671,
      "longitude": 82.94262272398605
    }
  },
  {
    "roomNumber": "1-к",
    "id": 96,
    "area": 40,
    "street": "Ленинградская улица",
    "houseNumber": 81,
    "coordinates": {
      "latitude": 55.028840956482945,
      "longitude": 82.84072212534915
    }
  },
  {
    "roomNumber": "6-к",
    "id": 97,
    "area": 231,
    "street": "улица Тургенева",
    "houseNumber": 15,
    "coordinates": {
      "latitude": 55.001649287184165,
      "longitude": 82.80720674662854
    }
  },
  {
    "roomNumber": "10-к",
    "id": 98,
    "area": 139,
    "street": "Вокзальная магистраль",
    "houseNumber": 34,
    "coordinates": {
      "latitude": 54.96419750648996,
      "longitude": 82.91975187272281
    }
  },
  {
    "roomNumber": "2-к",
    "id": 99,
    "area": 96,
    "street": "улица Орджоникидзе",
    "houseNumber": 91,
    "coordinates": {
      "latitude": 55.033407078713694,
      "longitude": 82.81785970242952
    }
  },
  {
    "roomNumber": "5-к",
    "id": 100,
    "area": 173,
    "street": "улица Романова",
    "houseNumber": 33,
    "coordinates": {
      "latitude": 55.078587293871365,
      "longitude": 82.8174209266509
    }
  },
  {
    "roomNumber": "4-к",
    "id": 101,
    "area": 242,
    "street": "Потанинская улица",
    "houseNumber": 38,
    "coordinates": {
      "latitude": 55.08461020301527,
      "longitude": 82.99395186000959
    }
  },
  {
    "roomNumber": "5-к",
    "id": 102,
    "area": 136,
    "street": "Нижегородская улица",
    "houseNumber": 78,
    "coordinates": {
      "latitude": 55.08956491100592,
      "longitude": 82.87473396936984
    }
  },
  {
    "roomNumber": "7-к",
    "id": 103,
    "area": 285,
    "street": "Мочищенское шоссе",
    "houseNumber": 75,
    "coordinates": {
      "latitude": 55.031437732994355,
      "longitude": 82.9445402949243
    }
  },
  {
    "roomNumber": "7-к",
    "id": 104,
    "area": 47,
    "street": "Дунайская улица",
    "houseNumber": 100,
    "coordinates": {
      "latitude": 55.035506033685145,
      "longitude": 82.81767268816381
    }
  },
  {
    "roomNumber": "8-к",
    "id": 105,
    "area": 295,
    "street": "улица Белинского",
    "houseNumber": 42,
    "coordinates": {
      "latitude": 55.06976251006171,
      "longitude": 82.8083641149048
    }
  },
  {
    "roomNumber": "9-к",
    "id": 106,
    "area": 49,
    "street": "улица Чехова",
    "houseNumber": 55,
    "coordinates": {
      "latitude": 54.99746710410988,
      "longitude": 83.02331594833163
    }
  },
  {
    "roomNumber": "3-к",
    "id": 107,
    "area": 144,
    "street": "Садовая улица",
    "houseNumber": 77,
    "coordinates": {
      "latitude": 54.99692662775386,
      "longitude": 82.86295436148141
    }
  },
  {
    "roomNumber": "7-к",
    "id": 108,
    "area": 229,
    "street": "Московская улица",
    "houseNumber": 83,
    "coordinates": {
      "latitude": 55.05309365951716,
      "longitude": 82.93675717511215
    }
  },
  {
    "roomNumber": "7-к",
    "id": 109,
    "area": 155,
    "street": "улица 3 Интернационала",
    "houseNumber": 74,
    "coordinates": {
      "latitude": 54.96383001238353,
      "longitude": 83.043357433086
    }
  },
  {
    "roomNumber": "2-к",
    "id": 110,
    "area": 291,
    "street": "улица Толстого",
    "houseNumber": 61,
    "coordinates": {
      "latitude": 54.968919532835415,
      "longitude": 82.80450587216463
    }
  },
  {
    "roomNumber": "8-к",
    "id": 111,
    "area": 23,
    "street": "Автогенная улица",
    "houseNumber": 94,
    "coordinates": {
      "latitude": 54.97290989524305,
      "longitude": 82.86762604549038
    }
  },
  {
    "roomNumber": "6-к",
    "id": 112,
    "area": 87,
    "street": "Серебренниковская улица",
    "houseNumber": 67,
    "coordinates": {
      "latitude": 55.071628977625885,
      "longitude": 82.87086963624607
    }
  },
  {
    "roomNumber": "3-к",
    "id": 113,
    "area": 43,
    "street": "Лазурная улица",
    "houseNumber": 28,
    "coordinates": {
      "latitude": 55.092224790692605,
      "longitude": 82.988327070799
    }
  },
  {
    "roomNumber": "8-к",
    "id": 114,
    "area": 119,
    "street": "Волочаевская улица",
    "houseNumber": 32,
    "coordinates": {
      "latitude": 55.012195280341636,
      "longitude": 82.93455376037157
    }
  },
  {
    "roomNumber": "6-к",
    "id": 115,
    "area": 261,
    "street": "улица Пархоменко",
    "houseNumber": 12,
    "coordinates": {
      "latitude": 54.9842681170242,
      "longitude": 82.82575636550074
    }
  },
  {
    "roomNumber": "5-к",
    "id": 116,
    "area": 42,
    "street": "улица Плахотного",
    "houseNumber": 58,
    "coordinates": {
      "latitude": 55.03653580398152,
      "longitude": 82.89473081616062
    }
  },
  {
    "roomNumber": "5-к",
    "id": 117,
    "area": 38,
    "street": "улица Станиславского",
    "houseNumber": 93,
    "coordinates": {
      "latitude": 54.97248576370473,
      "longitude": 82.92875222846949
    }
  },
  {
    "roomNumber": "6-к",
    "id": 118,
    "area": 126,
    "street": "площадь Энергетиков",
    "houseNumber": 57,
    "coordinates": {
      "latitude": 54.96164621507345,
      "longitude": 82.8471040819862
    }
  },
  {
    "roomNumber": "3-к",
    "id": 119,
    "area": 49,
    "street": "площадь Станиславского",
    "houseNumber": 39,
    "coordinates": {
      "latitude": 55.08852428280549,
      "longitude": 82.94831184401403
    }
  },
  {
    "roomNumber": "5-к",
    "id": 120,
    "area": 47,
    "street": "улица Титова",
    "houseNumber": 14,
    "coordinates": {
      "latitude": 54.99062862486071,
      "longitude": 82.9598153165874
    }
  },
  {
    "roomNumber": "4-к",
    "id": 121,
    "area": 15,
    "street": "улица Серафимовича",
    "houseNumber": 22,
    "coordinates": {
      "latitude": 55.01277058171921,
      "longitude": 82.84816848948377
    }
  },
  {
    "roomNumber": "2-к",
    "id": 122,
    "area": 106,
    "street": "Тихвинская улица",
    "houseNumber": 30,
    "coordinates": {
      "latitude": 54.98883933685077,
      "longitude": 83.02233864490044
    }
  },
  {
    "roomNumber": "10-к",
    "id": 123,
    "area": 235,
    "street": "Кривощёковская улица",
    "houseNumber": 37,
    "coordinates": {
      "latitude": 55.063484003398266,
      "longitude": 82.85316343764376
    }
  },
  {
    "roomNumber": "6-к",
    "id": 124,
    "area": 178,
    "street": "Артиллерийская улица",
    "houseNumber": 61,
    "coordinates": {
      "latitude": 55.09572533926455,
      "longitude": 82.82005118154247
    }
  },
  {
    "roomNumber": "8-к",
    "id": 125,
    "area": 205,
    "street": "улица Державина",
    "houseNumber": 28,
    "coordinates": {
      "latitude": 54.965768432652375,
      "longitude": 83.0371360629148
    }
  },
  {
    "roomNumber": "4-к",
    "id": 126,
    "area": 300,
    "street": "дублёр Ипподромской",
    "houseNumber": 24,
    "coordinates": {
      "latitude": 54.97766127427652,
      "longitude": 82.87521985954893
    }
  },
  {
    "roomNumber": "8-к",
    "id": 127,
    "area": 56,
    "street": "Плановая улица",
    "houseNumber": 16,
    "coordinates": {
      "latitude": 55.098178400095975,
      "longitude": 83.01404313181192
    }
  },
  {
    "roomNumber": "7-к",
    "id": 128,
    "area": 35,
    "street": "Коммунистическая улица",
    "houseNumber": 75,
    "coordinates": {
      "latitude": 55.095956887550535,
      "longitude": 82.97714458490609
    }
  },
  {
    "roomNumber": "5-к",
    "id": 129,
    "area": 72,
    "street": "Большая улица",
    "houseNumber": 70,
    "coordinates": {
      "latitude": 55.096587977546264,
      "longitude": 82.88217589394073
    }
  },
  {
    "roomNumber": "1-к",
    "id": 130,
    "area": 97,
    "street": "Колыванское шоссе",
    "houseNumber": 27,
    "coordinates": {
      "latitude": 54.96725815219262,
      "longitude": 82.90938058704756
    }
  },
  {
    "roomNumber": "5-к",
    "id": 131,
    "area": 28,
    "street": "Гусинобродское шоссе",
    "houseNumber": 79,
    "coordinates": {
      "latitude": 55.04845873484422,
      "longitude": 82.9554515915802
    }
  },
  {
    "roomNumber": "7-к",
    "id": 132,
    "area": 245,
    "street": "Бийская улица",
    "houseNumber": 60,
    "coordinates": {
      "latitude": 54.98689404455293,
      "longitude": 82.98168707272951
    }
  },
  {
    "roomNumber": "8-к",
    "id": 133,
    "area": 299,
    "street": "улица Халтурина",
    "houseNumber": 44,
    "coordinates": {
      "latitude": 55.005687710833335,
      "longitude": 82.89271790738437
    }
  },
  {
    "roomNumber": "7-к",
    "id": 134,
    "area": 151,
    "street": "улица Филатова",
    "houseNumber": 48,
    "coordinates": {
      "latitude": 55.02023853931914,
      "longitude": 83.00261380905187
    }
  },
  {
    "roomNumber": "3-к",
    "id": 135,
    "area": 22,
    "street": "Фасадная улица",
    "houseNumber": 41,
    "coordinates": {
      "latitude": 55.06492472262136,
      "longitude": 82.80484101102846
    }
  },
  {
    "roomNumber": "5-к",
    "id": 136,
    "area": 140,
    "street": "улица Забалуева",
    "houseNumber": 44,
    "coordinates": {
      "latitude": 55.0221408523528,
      "longitude": 82.92974015796527
    }
  },
  {
    "roomNumber": "3-к",
    "id": 137,
    "area": 38,
    "street": "Танковая улица",
    "houseNumber": 90,
    "coordinates": {
      "latitude": 55.028359489172395,
      "longitude": 83.01407848153643
    }
  },
  {
    "roomNumber": "8-к",
    "id": 138,
    "area": 77,
    "street": "Туннельный спуск",
    "houseNumber": 38,
    "coordinates": {
      "latitude": 55.02450719767403,
      "longitude": 83.04134408750843
    }
  },
  {
    "roomNumber": "3-к",
    "id": 139,
    "area": 56,
    "street": "улица Челюскинцев",
    "houseNumber": 77,
    "coordinates": {
      "latitude": 55.02502652097599,
      "longitude": 83.01126158244753
    }
  },
  {
    "roomNumber": "4-к",
    "id": 140,
    "area": 28,
    "street": "улица Немировича-Данченко",
    "houseNumber": 32,
    "coordinates": {
      "latitude": 55.04804935821136,
      "longitude": 82.89491731098255
    }
  },
  {
    "roomNumber": "10-к",
    "id": 141,
    "area": 46,
    "street": "Народная улица",
    "houseNumber": 90,
    "coordinates": {
      "latitude": 54.96284827495946,
      "longitude": 83.02087633613364
    }
  },
  {
    "roomNumber": "4-к",
    "id": 142,
    "area": 260,
    "street": "улица Новая Заря",
    "houseNumber": 92,
    "coordinates": {
      "latitude": 55.072802416748566,
      "longitude": 82.87883134724554
    }
  },
  {
    "roomNumber": "5-к",
    "id": 143,
    "area": 246,
    "street": "улица Овчукова",
    "houseNumber": 11,
    "coordinates": {
      "latitude": 55.08984457587035,
      "longitude": 82.83442753078745
    }
  },
  {
    "roomNumber": "9-к",
    "id": 144,
    "area": 155,
    "street": "улица Кутателадзе",
    "houseNumber": 64,
    "coordinates": {
      "latitude": 54.99020486992345,
      "longitude": 82.85840765769866
    }
  },
  {
    "roomNumber": "7-к",
    "id": 145,
    "area": 35,
    "street": "улица Героев Труда",
    "houseNumber": 75,
    "coordinates": {
      "latitude": 54.96707831053024,
      "longitude": 82.86691377263134
    }
  },
  {
    "roomNumber": "8-к",
    "id": 146,
    "area": 54,
    "street": "улица Демакова",
    "houseNumber": 75,
    "coordinates": {
      "latitude": 55.01771381997571,
      "longitude": 82.83166217437358
    }
  },
  {
    "roomNumber": "3-к",
    "id": 147,
    "area": 278,
    "street": "улица Иванова",
    "houseNumber": 59,
    "coordinates": {
      "latitude": 55.01846834919532,
      "longitude": 82.94691951316639
    }
  },
  {
    "roomNumber": "9-к",
    "id": 148,
    "area": 265,
    "street": "улица Мусы Джалиля",
    "houseNumber": 52,
    "coordinates": {
      "latitude": 55.046672185985145,
      "longitude": 82.9342596845495
    }
  },
  {
    "roomNumber": "9-к",
    "id": 149,
    "area": 235,
    "street": "Гидромонтажная улица",
    "houseNumber": 39,
    "coordinates": {
      "latitude": 55.00536279838009,
      "longitude": 82.84557866999214
    }
  },
  {
    "roomNumber": "9-к",
    "id": 150,
    "area": 41,
    "street": "улица Молодости",
    "houseNumber": 84,
    "coordinates": {
      "latitude": 55.06457454258967,
      "longitude": 82.87951402858337
    }
  },
  {
    "roomNumber": "10-к",
    "id": 151,
    "area": 208,
    "street": "улица Шевченко",
    "houseNumber": 37,
    "coordinates": {
      "latitude": 55.02189984923183,
      "longitude": 82.97139623979837
    }
  },
  {
    "roomNumber": "8-к",
    "id": 152,
    "area": 76,
    "street": "Инская улица",
    "houseNumber": 74,
    "coordinates": {
      "latitude": 54.99885460994942,
      "longitude": 82.82254625968153
    }
  },
  {
    "roomNumber": "6-к",
    "id": 153,
    "area": 100,
    "street": "Светлановская улица",
    "houseNumber": 1,
    "coordinates": {
      "latitude": 54.98058595205478,
      "longitude": 82.80987556841377
    }
  },
  {
    "roomNumber": "6-к",
    "id": 154,
    "area": 149,
    "street": "Северная улица",
    "houseNumber": 19,
    "coordinates": {
      "latitude": 55.02892311542992,
      "longitude": 83.00864691974292
    }
  },
  {
    "roomNumber": "10-к",
    "id": 155,
    "area": 295,
    "street": "Рекордный переулок",
    "houseNumber": 47,
    "coordinates": {
      "latitude": 54.96154419519772,
      "longitude": 83.01687338329086
    }
  },
  {
    "roomNumber": "2-к",
    "id": 156,
    "area": 159,
    "street": "улица Красных Зорь",
    "houseNumber": 77,
    "coordinates": {
      "latitude": 54.97204704207939,
      "longitude": 82.99390962904778
    }
  },
  {
    "roomNumber": "4-к",
    "id": 157,
    "area": 109,
    "street": "улица Мясниковой",
    "houseNumber": 27,
    "coordinates": {
      "latitude": 55.07779835297994,
      "longitude": 82.7940083504729
    }
  },
  {
    "roomNumber": "1-к",
    "id": 158,
    "area": 26,
    "street": "улица Кочубея",
    "houseNumber": 45,
    "coordinates": {
      "latitude": 54.96749712296315,
      "longitude": 83.03484524720001
    }
  },
  {
    "roomNumber": "1-к",
    "id": 159,
    "area": 187,
    "street": "улица Краузе",
    "houseNumber": 37,
    "coordinates": {
      "latitude": 55.0777578424621,
      "longitude": 83.02460025121479
    }
  },
  {
    "roomNumber": "10-к",
    "id": 160,
    "area": 138,
    "street": "улица Дмитрия Донского",
    "houseNumber": 47,
    "coordinates": {
      "latitude": 55.08532573730329,
      "longitude": 83.01505439283345
    }
  },
  {
    "roomNumber": "5-к",
    "id": 161,
    "area": 123,
    "street": "Тайгинская улица",
    "houseNumber": 82,
    "coordinates": {
      "latitude": 55.03933568527036,
      "longitude": 82.81154573955965
    }
  },
  {
    "roomNumber": "1-к",
    "id": 162,
    "area": 109,
    "street": "улица Сибиряков-Гвардейцев",
    "houseNumber": 42,
    "coordinates": {
      "latitude": 55.01727626671874,
      "longitude": 83.04225041892745
    }
  },
  {
    "roomNumber": "8-к",
    "id": 163,
    "area": 72,
    "street": "площадь Сибиряков-Гвардейцев",
    "houseNumber": 73,
    "coordinates": {
      "latitude": 55.036604558969984,
      "longitude": 82.89412871325271
    }
  },
  {
    "roomNumber": "10-к",
    "id": 164,
    "area": 290,
    "street": "Саратовская улица",
    "houseNumber": 99,
    "coordinates": {
      "latitude": 55.004625853686974,
      "longitude": 82.90604158164888
    }
  },
  {
    "roomNumber": "3-к",
    "id": 165,
    "area": 133,
    "street": "улица Стофато",
    "houseNumber": 35,
    "coordinates": {
      "latitude": 54.991777891631536,
      "longitude": 82.98155869149718
    }
  },
  {
    "roomNumber": "1-к",
    "id": 166,
    "area": 275,
    "street": "улица Журавлёва",
    "houseNumber": 67,
    "coordinates": {
      "latitude": 55.08548122201841,
      "longitude": 82.96123364996822
    }
  },
  {
    "roomNumber": "8-к",
    "id": 167,
    "area": 246,
    "street": "Светлая улица",
    "houseNumber": 61,
    "coordinates": {
      "latitude": 55.018441791244406,
      "longitude": 82.87195620639804
    }
  },
  {
    "roomNumber": "7-к",
    "id": 168,
    "area": 245,
    "street": "Планировочная улица",
    "houseNumber": 12,
    "coordinates": {
      "latitude": 55.04385605308628,
      "longitude": 82.84215861880217
    }
  },
  {
    "roomNumber": "5-к",
    "id": 169,
    "area": 212,
    "street": "Хитровская улица",
    "houseNumber": 80,
    "coordinates": {
      "latitude": 55.07550611951754,
      "longitude": 82.86083251386113
    }
  },
  {
    "roomNumber": "8-к",
    "id": 170,
    "area": 172,
    "street": "Родниковая улица",
    "houseNumber": 4,
    "coordinates": {
      "latitude": 55.04418317002666,
      "longitude": 82.90568544288371
    }
  },
  {
    "roomNumber": "1-к",
    "id": 171,
    "area": 238,
    "street": "Выборная улица",
    "houseNumber": 37,
    "coordinates": {
      "latitude": 55.03259059191319,
      "longitude": 83.02304000143438
    }
  },
  {
    "roomNumber": "9-к",
    "id": 172,
    "area": 79,
    "street": "Технологический проезд",
    "houseNumber": 51,
    "coordinates": {
      "latitude": 54.96357260047187,
      "longitude": 82.81268149071298
    }
  },
  {
    "roomNumber": "10-к",
    "id": 173,
    "area": 142,
    "street": "улица Связистов",
    "houseNumber": 91,
    "coordinates": {
      "latitude": 55.037584342829824,
      "longitude": 82.9651883737299
    }
  },
  {
    "roomNumber": "2-к",
    "id": 174,
    "area": 154,
    "street": "Волховская улица",
    "houseNumber": 44,
    "coordinates": {
      "latitude": 54.99489957861685,
      "longitude": 83.02003814658221
    }
  },
  {
    "roomNumber": "2-к",
    "id": 175,
    "area": 288,
    "street": "Оборонная улица",
    "houseNumber": 1,
    "coordinates": {
      "latitude": 55.0834899754973,
      "longitude": 82.94828589986739
    }
  },
  {
    "roomNumber": "6-к",
    "id": 176,
    "area": 262,
    "street": "улица 9-й Гвардейской Дивизии",
    "houseNumber": 89,
    "coordinates": {
      "latitude": 55.031633316416546,
      "longitude": 83.01774549655839
    }
  },
  {
    "roomNumber": "1-к",
    "id": 177,
    "area": 34,
    "street": "Колхидская улица",
    "houseNumber": 4,
    "coordinates": {
      "latitude": 55.030488194162295,
      "longitude": 82.92781586765342
    }
  },
  {
    "roomNumber": "6-к",
    "id": 178,
    "area": 262,
    "street": "площадь Кирова",
    "houseNumber": 16,
    "coordinates": {
      "latitude": 55.08647087519921,
      "longitude": 82.96018838623137
    }
  },
  {
    "roomNumber": "10-к",
    "id": 179,
    "area": 181,
    "street": "улица Петухова",
    "houseNumber": 15,
    "coordinates": {
      "latitude": 55.06323572390981,
      "longitude": 82.90693063661791
    }
  },
  {
    "roomNumber": "6-к",
    "id": 180,
    "area": 25,
    "street": "улица Бородина",
    "houseNumber": 44,
    "coordinates": {
      "latitude": 55.01249740224612,
      "longitude": 83.01165347769142
    }
  },
  {
    "roomNumber": "1-к",
    "id": 181,
    "area": 208,
    "street": "улица Петровского",
    "houseNumber": 64,
    "coordinates": {
      "latitude": 54.970673486783475,
      "longitude": 82.86075720150848
    }
  },
  {
    "roomNumber": "2-к",
    "id": 182,
    "area": 57,
    "street": "улица Аникина",
    "houseNumber": 45,
    "coordinates": {
      "latitude": 55.010851329191475,
      "longitude": 82.84487400313232
    }
  },
  {
    "roomNumber": "3-к",
    "id": 183,
    "area": 220,
    "street": "Карьермочищенская улица",
    "houseNumber": 34,
    "coordinates": {
      "latitude": 55.02842544684384,
      "longitude": 82.94720669155619
    }
  },
  {
    "roomNumber": "10-к",
    "id": 184,
    "area": 115,
    "street": "Русская улица",
    "houseNumber": 88,
    "coordinates": {
      "latitude": 54.995298244573604,
      "longitude": 82.80808386256848
    }
  },
  {
    "roomNumber": "3-к",
    "id": 185,
    "area": 185,
    "street": "Владимировский спуск",
    "houseNumber": 4,
    "coordinates": {
      "latitude": 55.06446365478467,
      "longitude": 83.04340928547613
    }
  },
  {
    "roomNumber": "8-к",
    "id": 186,
    "area": 83,
    "street": "1-я Механическая улица",
    "houseNumber": 70,
    "coordinates": {
      "latitude": 55.05917908715654,
      "longitude": 82.84395389159472
    }
  },
  {
    "roomNumber": "6-к",
    "id": 187,
    "area": 279,
    "street": "3-я Механическая улица",
    "houseNumber": 51,
    "coordinates": {
      "latitude": 55.00158689193506,
      "longitude": 83.01817790563717
    }
  },
  {
    "roomNumber": "4-к",
    "id": 188,
    "area": 18,
    "street": "улица Танкистов",
    "houseNumber": 49,
    "coordinates": {
      "latitude": 55.085305456879986,
      "longitude": 82.86577557769932
    }
  },
  {
    "roomNumber": "7-к",
    "id": 189,
    "area": 160,
    "street": "Днепрогэсовская улица",
    "houseNumber": 63,
    "coordinates": {
      "latitude": 55.078563250364574,
      "longitude": 82.89604922014335
    }
  },
  {
    "roomNumber": "4-к",
    "id": 190,
    "area": 49,
    "street": "улица Демьяна Бедного",
    "houseNumber": 60,
    "coordinates": {
      "latitude": 55.02382960298396,
      "longitude": 82.93928371649663
    }
  },
  {
    "roomNumber": "6-к",
    "id": 191,
    "area": 223,
    "street": "Полевая улица",
    "houseNumber": 84,
    "coordinates": {
      "latitude": 55.08786049587155,
      "longitude": 82.80769290727524
    }
  },
  {
    "roomNumber": "6-к",
    "id": 192,
    "area": 295,
    "street": "Чернышевский спуск",
    "houseNumber": 57,
    "coordinates": {
      "latitude": 55.09670047489102,
      "longitude": 83.03268042962647
    }
  },
  {
    "roomNumber": "4-к",
    "id": 193,
    "area": 154,
    "street": "Новоморская улица",
    "houseNumber": 45,
    "coordinates": {
      "latitude": 55.00161707509148,
      "longitude": 82.81537468627384
    }
  },
  {
    "roomNumber": "1-к",
    "id": 194,
    "area": 64,
    "street": "Софийская улица",
    "houseNumber": 84,
    "coordinates": {
      "latitude": 55.09254809957201,
      "longitude": 82.92063057594831
    }
  },
  {
    "roomNumber": "10-к",
    "id": 195,
    "area": 236,
    "street": "Ветлужская улица",
    "houseNumber": 27,
    "coordinates": {
      "latitude": 55.06058713164989,
      "longitude": 82.90473153363209
    }
  },
  {
    "roomNumber": "3-к",
    "id": 196,
    "area": 115,
    "street": "улица Вахтангова",
    "houseNumber": 54,
    "coordinates": {
      "latitude": 54.96177513268405,
      "longitude": 82.98093972911548
    }
  },
  {
    "roomNumber": "9-к",
    "id": 197,
    "area": 91,
    "street": "улица Белоусова",
    "houseNumber": 83,
    "coordinates": {
      "latitude": 54.98904345338227,
      "longitude": 82.87048568928515
    }
  },
  {
    "roomNumber": "1-к",
    "id": 198,
    "area": 285,
    "street": "Закарпатская улица",
    "houseNumber": 42,
    "coordinates": {
      "latitude": 54.99939267047994,
      "longitude": 82.81719550349334
    }
  },
  {
    "roomNumber": "2-к",
    "id": 199,
    "area": 34,
    "street": "Иноземная улица",
    "houseNumber": 12,
    "coordinates": {
      "latitude": 54.977038303313265,
      "longitude": 82.9568780468322
    }
  },
  {
    "roomNumber": "8-к",
    "id": 200,
    "area": 45,
    "street": "улица Тружеников",
    "houseNumber": 21,
    "coordinates": {
      "latitude": 54.96316646295551,
      "longitude": 82.8490783854158
    }
  },
  {
    "roomNumber": "1-к",
    "id": 201,
    "area": 107,
    "street": "Золоторожская улица",
    "houseNumber": 44,
    "coordinates": {
      "latitude": 54.993576282058136,
      "longitude": 82.91358747525632
    }
  },
  {
    "roomNumber": "3-к",
    "id": 202,
    "area": 167,
    "street": "улица Гидростроителей",
    "houseNumber": 29,
    "coordinates": {
      "latitude": 55.05914849831477,
      "longitude": 82.99655737754463
    }
  },
  {
    "roomNumber": "3-к",
    "id": 203,
    "area": 95,
    "street": "Тихая улица",
    "houseNumber": 35,
    "coordinates": {
      "latitude": 55.00538967747457,
      "longitude": 82.96609867079894
    }
  },
  {
    "roomNumber": "3-к",
    "id": 204,
    "area": 237,
    "street": "Оренбургская улица",
    "houseNumber": 95,
    "coordinates": {
      "latitude": 54.99275240870176,
      "longitude": 82.83694928381985
    }
  },
  {
    "roomNumber": "9-к",
    "id": 205,
    "area": 29,
    "street": "Самарская улица",
    "houseNumber": 96,
    "coordinates": {
      "latitude": 54.97631727872548,
      "longitude": 82.98961612795254
    }
  },
  {
    "roomNumber": "1-к",
    "id": 206,
    "area": 192,
    "street": "Самарский переулок",
    "houseNumber": 23,
    "coordinates": {
      "latitude": 55.09244360608645,
      "longitude": 82.87774480027356
    }
  },
  {
    "roomNumber": "4-к",
    "id": 207,
    "area": 244,
    "street": "Тульская улица",
    "houseNumber": 92,
    "coordinates": {
      "latitude": 55.03902294040459,
      "longitude": 82.96858961325565
    }
  },
  {
    "roomNumber": "8-к",
    "id": 208,
    "area": 54,
    "street": "Мотодром РОСТО",
    "houseNumber": 44,
    "coordinates": {
      "latitude": 54.99842852493075,
      "longitude": 82.9819263189492
    }
  },
  {
    "roomNumber": "6-к",
    "id": 209,
    "area": 231,
    "street": "2-я Станционная улица",
    "houseNumber": 44,
    "coordinates": {
      "latitude": 55.06056611429989,
      "longitude": 82.79572513483349
    }
  },
  {
    "roomNumber": "6-к",
    "id": 210,
    "area": 157,
    "street": "улица Академика Будкера",
    "houseNumber": 72,
    "coordinates": {
      "latitude": 55.02945142492756,
      "longitude": 82.8776118701248
    }
  },
  {
    "roomNumber": "5-к",
    "id": 211,
    "area": 211,
    "street": "улица Дубравы",
    "houseNumber": 4,
    "coordinates": {
      "latitude": 55.04383411396107,
      "longitude": 82.84397059735012
    }
  },
  {
    "roomNumber": "10-к",
    "id": 212,
    "area": 72,
    "street": "5-й Экскаваторный переулок",
    "houseNumber": 85,
    "coordinates": {
      "latitude": 55.058575697791426,
      "longitude": 82.80709644164567
    }
  },
  {
    "roomNumber": "3-к",
    "id": 213,
    "area": 109,
    "street": "Сухарная улица",
    "houseNumber": 61,
    "coordinates": {
      "latitude": 55.075660109256816,
      "longitude": 82.91339052765959
    }
  },
  {
    "roomNumber": "3-к",
    "id": 214,
    "area": 281,
    "street": "Геофизическая улица",
    "houseNumber": 43,
    "coordinates": {
      "latitude": 54.97543483125012,
      "longitude": 83.01418824951703
    }
  },
  {
    "roomNumber": "5-к",
    "id": 215,
    "area": 298,
    "street": "улица Суркова",
    "houseNumber": 92,
    "coordinates": {
      "latitude": 54.98330232790022,
      "longitude": 82.8675949485171
    }
  },
  {
    "roomNumber": "9-к",
    "id": 216,
    "area": 165,
    "street": "Национальная улица",
    "houseNumber": 15,
    "coordinates": {
      "latitude": 55.09122339516598,
      "longitude": 82.81460925618633
    }
  },
  {
    "roomNumber": "6-к",
    "id": 217,
    "area": 138,
    "street": "2-й переулок Доватора",
    "houseNumber": 45,
    "coordinates": {
      "latitude": 55.02768087009128,
      "longitude": 83.03255886501661
    }
  },
  {
    "roomNumber": "2-к",
    "id": 218,
    "area": 137,
    "street": "1-й переулок Доватора",
    "houseNumber": 28,
    "coordinates": {
      "latitude": 54.998393050700244,
      "longitude": 83.02022296384649
    }
  },
  {
    "roomNumber": "3-к",
    "id": 219,
    "area": 251,
    "street": "7-й Трикотажный переулок",
    "houseNumber": 90,
    "coordinates": {
      "latitude": 55.022249198526865,
      "longitude": 82.98164745420733
    }
  },
  {
    "roomNumber": "6-к",
    "id": 220,
    "area": 162,
    "street": "Станционная улица",
    "houseNumber": 44,
    "coordinates": {
      "latitude": 54.99195617726559,
      "longitude": 83.03919094029708
    }
  },
  {
    "roomNumber": "5-к",
    "id": 221,
    "area": 73,
    "street": "улица Мальцева",
    "houseNumber": 27,
    "coordinates": {
      "latitude": 55.09582877812306,
      "longitude": 83.00383572617099
    }
  },
  {
    "roomNumber": "3-к",
    "id": 222,
    "area": 143,
    "street": "улица Тимирязева",
    "houseNumber": 75,
    "coordinates": {
      "latitude": 55.05291598961755,
      "longitude": 83.02279953817245
    }
  },
  {
    "roomNumber": "9-к",
    "id": 223,
    "area": 264,
    "street": "улица Достоевского",
    "houseNumber": 22,
    "coordinates": {
      "latitude": 55.013840086790346,
      "longitude": 82.8583679206617
    }
  },
  {
    "roomNumber": "5-к",
    "id": 224,
    "area": 284,
    "street": "улица Некрасова",
    "houseNumber": 17,
    "coordinates": {
      "latitude": 54.97346646563264,
      "longitude": 82.90830222980783
    }
  },
  {
    "roomNumber": "8-к",
    "id": 225,
    "area": 62,
    "street": "улица Лермонтова",
    "houseNumber": 44,
    "coordinates": {
      "latitude": 55.09239394596772,
      "longitude": 82.99184023104466
    }
  },
  {
    "roomNumber": "10-к",
    "id": 226,
    "area": 121,
    "street": "Бурлинский переезд",
    "houseNumber": 60,
    "coordinates": {
      "latitude": 54.97941580816856,
      "longitude": 82.91794957157528
    }
  },
  {
    "roomNumber": "9-к",
    "id": 227,
    "area": 64,
    "street": "1-й переулок Мира",
    "houseNumber": 56,
    "coordinates": {
      "latitude": 55.06406802488452,
      "longitude": 83.00711829736822
    }
  },
  {
    "roomNumber": "2-к",
    "id": 228,
    "area": 61,
    "street": "1-й переулок Бурденко",
    "houseNumber": 10,
    "coordinates": {
      "latitude": 55.05886413283178,
      "longitude": 82.91398454345527
    }
  },
  {
    "roomNumber": "7-к",
    "id": 229,
    "area": 246,
    "street": "2-й переулок Бурденко",
    "houseNumber": 87,
    "coordinates": {
      "latitude": 55.023569565087605,
      "longitude": 82.9636614291707
    }
  },
  {
    "roomNumber": "6-к",
    "id": 230,
    "area": 137,
    "street": "улица Бебеля",
    "houseNumber": 8,
    "coordinates": {
      "latitude": 54.99643778561898,
      "longitude": 82.93523584746953
    }
  },
  {
    "roomNumber": "2-к",
    "id": 231,
    "area": 50,
    "street": "улица Горбаня",
    "houseNumber": 21,
    "coordinates": {
      "latitude": 55.05762708887812,
      "longitude": 82.82706898910021
    }
  },
  {
    "roomNumber": "5-к",
    "id": 232,
    "area": 121,
    "street": "Ольховская улица",
    "houseNumber": 29,
    "coordinates": {
      "latitude": 55.091964157881876,
      "longitude": 82.89282535396282
    }
  },
  {
    "roomNumber": "1-к",
    "id": 233,
    "area": 228,
    "street": "2-я улица Бурденко",
    "houseNumber": 58,
    "coordinates": {
      "latitude": 55.02850305159065,
      "longitude": 83.02672403086667
    }
  },
  {
    "roomNumber": "3-к",
    "id": 234,
    "area": 67,
    "street": "2-я Ольховская улица",
    "houseNumber": 74,
    "coordinates": {
      "latitude": 55.05946794515053,
      "longitude": 82.86011543051558
    }
  },
  {
    "roomNumber": "3-к",
    "id": 235,
    "area": 218,
    "street": "Бетонная улица",
    "houseNumber": 76,
    "coordinates": {
      "latitude": 54.98256963991785,
      "longitude": 82.81754711290208
    }
  },
  {
    "roomNumber": "3-к",
    "id": 236,
    "area": 165,
    "street": "улица Сердюкова",
    "houseNumber": 40,
    "coordinates": {
      "latitude": 55.097142338777076,
      "longitude": 82.97833383537649
    }
  },
  {
    "roomNumber": "7-к",
    "id": 237,
    "area": 243,
    "street": "Часовая улица",
    "houseNumber": 32,
    "coordinates": {
      "latitude": 54.96806891989845,
      "longitude": 83.00720153592097
    }
  },
  {
    "roomNumber": "2-к",
    "id": 238,
    "area": 241,
    "street": "Барьерная улица",
    "houseNumber": 37,
    "coordinates": {
      "latitude": 54.998183040262155,
      "longitude": 82.88360636388633
    }
  },
  {
    "roomNumber": "5-к",
    "id": 239,
    "area": 15,
    "street": "улица Динамовцев",
    "houseNumber": 100,
    "coordinates": {
      "latitude": 55.09635996607515,
      "longitude": 82.9892645905182
    }
  },
  {
    "roomNumber": "7-к",
    "id": 240,
    "area": 190,
    "street": "Нагорная улица",
    "houseNumber": 2,
    "coordinates": {
      "latitude": 55.04894666510781,
      "longitude": 82.93891949704619
    }
  },
  {
    "roomNumber": "4-к",
    "id": 241,
    "area": 130,
    "street": "улица Энгельса",
    "houseNumber": 99,
    "coordinates": {
      "latitude": 54.98395432283425,
      "longitude": 83.0037804689618
    }
  },
  {
    "roomNumber": "4-к",
    "id": 242,
    "area": 69,
    "street": "улица 40 лет Комсомола",
    "houseNumber": 16,
    "coordinates": {
      "latitude": 54.97867432090154,
      "longitude": 82.92198454377622
    }
  },
  {
    "roomNumber": "9-к",
    "id": 243,
    "area": 237,
    "street": "улица Бердышева",
    "houseNumber": 43,
    "coordinates": {
      "latitude": 55.08925563430309,
      "longitude": 82.81782604586859
    }
  },
  {
    "roomNumber": "7-к",
    "id": 244,
    "area": 160,
    "street": "Универсальная улица",
    "houseNumber": 92,
    "coordinates": {
      "latitude": 55.03853482959827,
      "longitude": 82.94009078946459
    }
  },
  {
    "roomNumber": "8-к",
    "id": 245,
    "area": 221,
    "street": "улица Печатников",
    "houseNumber": 95,
    "coordinates": {
      "latitude": 55.02865846383692,
      "longitude": 82.8990529778086
    }
  },
  {
    "roomNumber": "6-к",
    "id": 246,
    "area": 45,
    "street": "Широкая улица",
    "houseNumber": 36,
    "coordinates": {
      "latitude": 55.09541742002445,
      "longitude": 82.99675329394448
    }
  },
  {
    "roomNumber": "8-к",
    "id": 247,
    "area": 249,
    "street": "Новосибирская улица",
    "houseNumber": 80,
    "coordinates": {
      "latitude": 55.065699115230586,
      "longitude": 82.82288767092568
    }
  },
  {
    "roomNumber": "1-к",
    "id": 248,
    "area": 236,
    "street": "Пермская улица",
    "houseNumber": 9,
    "coordinates": {
      "latitude": 55.064015682049,
      "longitude": 82.80019729953663
    }
  },
  {
    "roomNumber": "7-к",
    "id": 249,
    "area": 147,
    "street": "Демьяновская улица",
    "houseNumber": 69,
    "coordinates": {
      "latitude": 54.980972374197,
      "longitude": 82.87039681768682
    }
  },
  {
    "roomNumber": "6-к",
    "id": 250,
    "area": 89,
    "street": "Советское шоссе",
    "houseNumber": 73,
    "coordinates": {
      "latitude": 55.07552666517133,
      "longitude": 82.95384536558618
    }
  },
  {
    "roomNumber": "3-к",
    "id": 251,
    "area": 29,
    "street": "Комсомольская улица",
    "houseNumber": 93,
    "coordinates": {
      "latitude": 54.990400206379384,
      "longitude": 82.84203716001609
    }
  },
  {
    "roomNumber": "7-к",
    "id": 252,
    "area": 270,
    "street": "улица Военный городок",
    "houseNumber": 18,
    "coordinates": {
      "latitude": 55.059108657922735,
      "longitude": 83.02866981116742
    }
  },
  {
    "roomNumber": "7-к",
    "id": 253,
    "area": 45,
    "street": "Тюменская улица",
    "houseNumber": 89,
    "coordinates": {
      "latitude": 55.027229162869695,
      "longitude": 82.85818805465289
    }
  },
  {
    "roomNumber": "9-к",
    "id": 254,
    "area": 70,
    "street": "Линейная улица",
    "houseNumber": 14,
    "coordinates": {
      "latitude": 55.02311862635857,
      "longitude": 82.89950683897034
    }
  },
  {
    "roomNumber": "10-к",
    "id": 255,
    "area": 204,
    "street": "Магистральная улица",
    "houseNumber": 5,
    "coordinates": {
      "latitude": 54.993107909285,
      "longitude": 83.02292824596933
    }
  },
  {
    "roomNumber": "9-к",
    "id": 256,
    "area": 87,
    "street": "Томская улица",
    "houseNumber": 97,
    "coordinates": {
      "latitude": 55.053768592173135,
      "longitude": 82.98005959377237
    }
  },
  {
    "roomNumber": "4-к",
    "id": 257,
    "area": 62,
    "street": "Томский переулок",
    "houseNumber": 11,
    "coordinates": {
      "latitude": 55.09005652873693,
      "longitude": 82.89027020580792
    }
  },
  {
    "roomNumber": "4-к",
    "id": 258,
    "area": 188,
    "street": "улица Аэропорт",
    "houseNumber": 74,
    "coordinates": {
      "latitude": 55.08161953727836,
      "longitude": 82.92164813341162
    }
  },
  {
    "roomNumber": "5-к",
    "id": 259,
    "area": 288,
    "street": "Дачная улица",
    "houseNumber": 6,
    "coordinates": {
      "latitude": 54.97388490509343,
      "longitude": 82.86089075528304
    }
  },
  {
    "roomNumber": "7-к",
    "id": 260,
    "area": 149,
    "street": "улица Королёва",
    "houseNumber": 10,
    "coordinates": {
      "latitude": 55.08177027396396,
      "longitude": 82.82297659967232
    }
  },
  {
    "roomNumber": "5-к",
    "id": 261,
    "area": 250,
    "street": "Комбинатская улица",
    "houseNumber": 94,
    "coordinates": {
      "latitude": 55.05510700021077,
      "longitude": 82.93068204797189
    }
  },
  {
    "roomNumber": "10-к",
    "id": 262,
    "area": 290,
    "street": "Авиационная улица",
    "houseNumber": 27,
    "coordinates": {
      "latitude": 55.07022164629594,
      "longitude": 82.91701793541851
    }
  },
  {
    "roomNumber": "4-к",
    "id": 263,
    "area": 25,
    "street": "улица 25 лет Октября",
    "houseNumber": 25,
    "coordinates": {
      "latitude": 54.98003773337416,
      "longitude": 82.9787559983678
    }
  },
  {
    "roomNumber": "5-к",
    "id": 264,
    "area": 18,
    "street": "улица Александра Невского",
    "houseNumber": 46,
    "coordinates": {
      "latitude": 55.09477398629003,
      "longitude": 82.83313741939133
    }
  },
  {
    "roomNumber": "5-к",
    "id": 265,
    "area": 98,
    "street": "Кубовая улица",
    "houseNumber": 8,
    "coordinates": {
      "latitude": 55.00302496845277,
      "longitude": 82.82109923638698
    }
  },
  {
    "roomNumber": "2-к",
    "id": 266,
    "area": 73,
    "street": "Петрозаводская улица",
    "houseNumber": 65,
    "coordinates": {
      "latitude": 54.97082885839686,
      "longitude": 82.94518863537255
    }
  },
  {
    "roomNumber": "1-к",
    "id": 267,
    "area": 196,
    "street": "Чусовская улица",
    "houseNumber": 94,
    "coordinates": {
      "latitude": 54.99914098951527,
      "longitude": 82.94636296191457
    }
  },
  {
    "roomNumber": "1-к",
    "id": 268,
    "area": 167,
    "street": "Белорусская улица",
    "houseNumber": 60,
    "coordinates": {
      "latitude": 54.99916225541891,
      "longitude": 82.9705466673786
    }
  },
  {
    "roomNumber": "9-к",
    "id": 269,
    "area": 223,
    "street": "Кавалерийская улица",
    "houseNumber": 64,
    "coordinates": {
      "latitude": 55.06358926705062,
      "longitude": 82.95421492566474
    }
  },
  {
    "roomNumber": "1-к",
    "id": 270,
    "area": 222,
    "street": "Пулемётная улица",
    "houseNumber": 24,
    "coordinates": {
      "latitude": 55.00623890340617,
      "longitude": 82.94584569626682
    }
  },
  {
    "roomNumber": "6-к",
    "id": 271,
    "area": 210,
    "street": "улица Урманова",
    "houseNumber": 79,
    "coordinates": {
      "latitude": 55.04667328845263,
      "longitude": 82.90695314515428
    }
  },
  {
    "roomNumber": "8-к",
    "id": 272,
    "area": 38,
    "street": "Обогатительная улица",
    "houseNumber": 17,
    "coordinates": {
      "latitude": 55.00117785643285,
      "longitude": 83.03021312221429
    }
  },
  {
    "roomNumber": "7-к",
    "id": 273,
    "area": 17,
    "street": "улица Саввы Кожевникова",
    "houseNumber": 13,
    "coordinates": {
      "latitude": 55.092804373225796,
      "longitude": 82.92929788754557
    }
  },
  {
    "roomNumber": "5-к",
    "id": 274,
    "area": 191,
    "street": "улица 20-го Партсъезда",
    "houseNumber": 91,
    "coordinates": {
      "latitude": 55.0001400441968,
      "longitude": 82.8430844785613
    }
  },
  {
    "roomNumber": "2-к",
    "id": 275,
    "area": 219,
    "street": "Оловозаводская улица",
    "houseNumber": 59,
    "coordinates": {
      "latitude": 55.01521832419572,
      "longitude": 83.00297093898627
    }
  },
  {
    "roomNumber": "2-к",
    "id": 276,
    "area": 135,
    "street": "Ильменская улица",
    "houseNumber": 83,
    "coordinates": {
      "latitude": 55.05184927940608,
      "longitude": 82.88507274795433
    }
  },
  {
    "roomNumber": "5-к",
    "id": 277,
    "area": 237,
    "street": "Чернореченская улица",
    "houseNumber": 27,
    "coordinates": {
      "latitude": 54.99573815836839,
      "longitude": 82.8020212147218
    }
  },
  {
    "roomNumber": "4-к",
    "id": 278,
    "area": 168,
    "street": "Симферопольская улица",
    "houseNumber": 76,
    "coordinates": {
      "latitude": 54.98664505771388,
      "longitude": 82.9209001283287
    }
  },
  {
    "roomNumber": "10-к",
    "id": 279,
    "area": 231,
    "street": "3-я Ольховская улица",
    "houseNumber": 11,
    "coordinates": {
      "latitude": 54.98390388748079,
      "longitude": 82.94839605889915
    }
  },
  {
    "roomNumber": "9-к",
    "id": 280,
    "area": 38,
    "street": "Албазинская улица",
    "houseNumber": 14,
    "coordinates": {
      "latitude": 55.09161636556628,
      "longitude": 82.93957968477399
    }
  },
  {
    "roomNumber": "7-к",
    "id": 281,
    "area": 115,
    "street": "Эстонская улица",
    "houseNumber": 12,
    "coordinates": {
      "latitude": 54.991860553372724,
      "longitude": 82.82221688161735
    }
  },
  {
    "roomNumber": "9-к",
    "id": 282,
    "area": 224,
    "street": "Таймырская улица",
    "houseNumber": 17,
    "coordinates": {
      "latitude": 55.09787175829024,
      "longitude": 82.94200107043181
    }
  },
  {
    "roomNumber": "3-к",
    "id": 283,
    "area": 241,
    "street": "2",
    "houseNumber": 84,
    "coordinates": {
      "latitude": 55.07288333013786,
      "longitude": 82.93632407268748
    }
  },
  {
    "roomNumber": "6-к",
    "id": 284,
    "area": 270,
    "street": "3",
    "houseNumber": 41,
    "coordinates": {
      "latitude": 55.007343820578676,
      "longitude": 82.98553610738368
    }
  },
  {
    "roomNumber": "1-к",
    "id": 285,
    "area": 187,
    "street": "4",
    "houseNumber": 15,
    "coordinates": {
      "latitude": 55.07033521184925,
      "longitude": 82.92155823560874
    }
  },
  {
    "roomNumber": "1-к",
    "id": 286,
    "area": 74,
    "street": "Проектная улица",
    "houseNumber": 43,
    "coordinates": {
      "latitude": 55.068302615831,
      "longitude": 82.99430182353285
    }
  },
  {
    "roomNumber": "3-к",
    "id": 287,
    "area": 121,
    "street": "Макеевская улица",
    "houseNumber": 46,
    "coordinates": {
      "latitude": 55.03051684430547,
      "longitude": 82.90246078123495
    }
  },
  {
    "roomNumber": "3-к",
    "id": 288,
    "area": 119,
    "street": "улица Эйхе",
    "houseNumber": 61,
    "coordinates": {
      "latitude": 55.01885811282213,
      "longitude": 82.8166347609299
    }
  },
  {
    "roomNumber": "7-к",
    "id": 289,
    "area": 164,
    "street": "улица Ключ-Камышенское Плато",
    "houseNumber": 53,
    "coordinates": {
      "latitude": 55.07723765019029,
      "longitude": 82.87361548480511
    }
  },
  {
    "roomNumber": "7-к",
    "id": 290,
    "area": 298,
    "street": "улица Воскова",
    "houseNumber": 74,
    "coordinates": {
      "latitude": 55.02868257301136,
      "longitude": 82.96007881363587
    }
  },
  {
    "roomNumber": "7-к",
    "id": 291,
    "area": 158,
    "street": "Инженерная улица",
    "houseNumber": 55,
    "coordinates": {
      "latitude": 55.05824958747898,
      "longitude": 82.8644036795318
    }
  },
  {
    "roomNumber": "10-к",
    "id": 292,
    "area": 70,
    "street": "Океанская улица",
    "houseNumber": 91,
    "coordinates": {
      "latitude": 55.07854794637753,
      "longitude": 83.02475722527453
    }
  },
  {
    "roomNumber": "8-к",
    "id": 293,
    "area": 93,
    "street": "Весенний проезд",
    "houseNumber": 1,
    "coordinates": {
      "latitude": 54.99946513027723,
      "longitude": 82.89167644325518
    }
  },
  {
    "roomNumber": "10-к",
    "id": 294,
    "area": 222,
    "street": "улица Дружбы",
    "houseNumber": 10,
    "coordinates": {
      "latitude": 54.986862248290365,
      "longitude": 82.81428021541947
    }
  },
  {
    "roomNumber": "1-к",
    "id": 295,
    "area": 178,
    "street": "улица Героев Революции",
    "houseNumber": 34,
    "coordinates": {
      "latitude": 55.07400279901291,
      "longitude": 82.86541585926231
    }
  },
  {
    "roomNumber": "4-к",
    "id": 296,
    "area": 49,
    "street": "Декадная улица",
    "houseNumber": 60,
    "coordinates": {
      "latitude": 54.975010371036234,
      "longitude": 82.99816498257285
    }
  },
  {
    "roomNumber": "5-к",
    "id": 297,
    "area": 84,
    "street": "3-й переулок Мира",
    "houseNumber": 10,
    "coordinates": {
      "latitude": 55.0531880662176,
      "longitude": 82.84756969955062
    }
  },
  {
    "roomNumber": "2-к",
    "id": 298,
    "area": 294,
    "street": "4-й переулок Мира",
    "houseNumber": 10,
    "coordinates": {
      "latitude": 54.99092564370072,
      "longitude": 82.89377079690928
    }
  },
  {
    "roomNumber": "6-к",
    "id": 299,
    "area": 240,
    "street": "1-й Ольховский переулок",
    "houseNumber": 88,
    "coordinates": {
      "latitude": 55.08320879925111,
      "longitude": 82.86012607553612
    }
  },
  {
    "roomNumber": "9-к",
    "id": 300,
    "area": 269,
    "street": "5-й переулок Мира",
    "houseNumber": 46,
    "coordinates": {
      "latitude": 55.06971491815576,
      "longitude": 83.02153760330383
    }
  },
  {
    "roomNumber": "5-к",
    "id": 301,
    "area": 19,
    "street": "5-я Ольховская улица",
    "houseNumber": 14,
    "coordinates": {
      "latitude": 54.997053398875344,
      "longitude": 82.92419235929876
    }
  },
  {
    "roomNumber": "9-к",
    "id": 302,
    "area": 173,
    "street": "4-я Ольховская улица",
    "houseNumber": 28,
    "coordinates": {
      "latitude": 55.05465087497606,
      "longitude": 82.9101648793556
    }
  },
  {
    "roomNumber": "2-к",
    "id": 303,
    "area": 294,
    "street": "2-й Ольховский переулок",
    "houseNumber": 89,
    "coordinates": {
      "latitude": 55.02149594219745,
      "longitude": 82.94766874806938
    }
  },
  {
    "roomNumber": "5-к",
    "id": 304,
    "area": 176,
    "street": "2-й переулок Мира",
    "houseNumber": 23,
    "coordinates": {
      "latitude": 55.049445851040545,
      "longitude": 82.90140453740113
    }
  },
  {
    "roomNumber": "3-к",
    "id": 305,
    "area": 76,
    "street": "Западная улица",
    "houseNumber": 54,
    "coordinates": {
      "latitude": 55.095490478722255,
      "longitude": 82.84624604839378
    }
  },
  {
    "roomNumber": "10-к",
    "id": 306,
    "area": 108,
    "street": "Пригородная улица",
    "houseNumber": 10,
    "coordinates": {
      "latitude": 55.07061322790669,
      "longitude": 82.86448081792456
    }
  },
  {
    "roomNumber": "5-к",
    "id": 307,
    "area": 214,
    "street": "Новобугринская улица",
    "houseNumber": 30,
    "coordinates": {
      "latitude": 55.09295888494842,
      "longitude": 82.9259993368046
    }
  },
  {
    "roomNumber": "3-к",
    "id": 308,
    "area": 252,
    "street": "улица Яковлева",
    "houseNumber": 27,
    "coordinates": {
      "latitude": 55.08751110884947,
      "longitude": 82.82606608011979
    }
  },
  {
    "roomNumber": "7-к",
    "id": 309,
    "area": 259,
    "street": "Валдайская улица",
    "houseNumber": 16,
    "coordinates": {
      "latitude": 55.0597066152243,
      "longitude": 83.03559323348335
    }
  },
  {
    "roomNumber": "1-к",
    "id": 310,
    "area": 167,
    "street": "Бугринский выселок переулок",
    "houseNumber": 25,
    "coordinates": {
      "latitude": 55.06613247209359,
      "longitude": 82.96712287548591
    }
  },
  {
    "roomNumber": "1-к",
    "id": 311,
    "area": 135,
    "street": "Бугринский выселок",
    "houseNumber": 91,
    "coordinates": {
      "latitude": 55.06614290268879,
      "longitude": 82.9945450758497
    }
  },
  {
    "roomNumber": "2-к",
    "id": 312,
    "area": 175,
    "street": "Космическая улица",
    "houseNumber": 43,
    "coordinates": {
      "latitude": 54.98368797747235,
      "longitude": 82.85046548058294
    }
  },
  {
    "roomNumber": "8-к",
    "id": 313,
    "area": 295,
    "street": "улица Галущака",
    "houseNumber": 32,
    "coordinates": {
      "latitude": 55.08837337409936,
      "longitude": 82.86083375275994
    }
  },
  {
    "roomNumber": "9-к",
    "id": 314,
    "area": 152,
    "street": "улица Олеко Дундича",
    "houseNumber": 72,
    "coordinates": {
      "latitude": 55.04794898124058,
      "longitude": 82.87376875358683
    }
  },
  {
    "roomNumber": "6-к",
    "id": 315,
    "area": 142,
    "street": "улица Коминтерна",
    "houseNumber": 39,
    "coordinates": {
      "latitude": 54.9930866403494,
      "longitude": 82.85571214420379
    }
  },
  {
    "roomNumber": "2-к",
    "id": 316,
    "area": 262,
    "street": "4-й Калужский переулок",
    "houseNumber": 98,
    "coordinates": {
      "latitude": 55.07411410821852,
      "longitude": 82.90456025943085
    }
  },
  {
    "roomNumber": "6-к",
    "id": 317,
    "area": 269,
    "street": "Степная улица",
    "houseNumber": 42,
    "coordinates": {
      "latitude": 55.07427890946332,
      "longitude": 82.81576260763752
    }
  },
  {
    "roomNumber": "3-к",
    "id": 318,
    "area": 148,
    "street": "Бульварная улица",
    "houseNumber": 36,
    "coordinates": {
      "latitude": 55.07597105100656,
      "longitude": 82.80702517913794
    }
  },
  {
    "roomNumber": "8-к",
    "id": 319,
    "area": 211,
    "street": "Телевизионная улица",
    "houseNumber": 13,
    "coordinates": {
      "latitude": 54.96563926126664,
      "longitude": 82.90025874415693
    }
  },
  {
    "roomNumber": "8-к",
    "id": 320,
    "area": 206,
    "street": "улица Успенского",
    "houseNumber": 39,
    "coordinates": {
      "latitude": 55.00763988430554,
      "longitude": 82.97225976165761
    }
  },
  {
    "roomNumber": "7-к",
    "id": 321,
    "area": 208,
    "street": "Взлётная улица",
    "houseNumber": 20,
    "coordinates": {
      "latitude": 55.052978636078116,
      "longitude": 82.92381983830873
    }
  },
  {
    "roomNumber": "9-к",
    "id": 322,
    "area": 117,
    "street": "Каштановая улица",
    "houseNumber": 98,
    "coordinates": {
      "latitude": 55.07298676860458,
      "longitude": 82.91056891633883
    }
  },
  {
    "roomNumber": "2-к",
    "id": 323,
    "area": 139,
    "street": "Приграничная улица",
    "houseNumber": 85,
    "coordinates": {
      "latitude": 54.9871880898617,
      "longitude": 82.97912701821384
    }
  },
  {
    "roomNumber": "2-к",
    "id": 324,
    "area": 60,
    "street": "улица Твардовского",
    "houseNumber": 25,
    "coordinates": {
      "latitude": 55.01299095057498,
      "longitude": 82.83339468171374
    }
  },
  {
    "roomNumber": "7-к",
    "id": 325,
    "area": 233,
    "street": "улица Одоевского",
    "houseNumber": 80,
    "coordinates": {
      "latitude": 55.0331266348532,
      "longitude": 82.88259027604886
    }
  },
  {
    "roomNumber": "9-к",
    "id": 326,
    "area": 115,
    "street": "улица Вересаева",
    "houseNumber": 9,
    "coordinates": {
      "latitude": 54.98946350102192,
      "longitude": 83.01200176333082
    }
  },
  {
    "roomNumber": "10-к",
    "id": 327,
    "area": 155,
    "street": "улица Ласточкина",
    "houseNumber": 11,
    "coordinates": {
      "latitude": 55.0763829672514,
      "longitude": 82.86002023507982
    }
  },
  {
    "roomNumber": "8-к",
    "id": 328,
    "area": 117,
    "street": "улица Нахимова",
    "houseNumber": 16,
    "coordinates": {
      "latitude": 55.00570596704099,
      "longitude": 82.9578950532333
    }
  },
  {
    "roomNumber": "9-к",
    "id": 329,
    "area": 40,
    "street": "Пихтовая улица",
    "houseNumber": 64,
    "coordinates": {
      "latitude": 55.03106409665842,
      "longitude": 83.02346366308682
    }
  },
  {
    "roomNumber": "8-к",
    "id": 330,
    "area": 181,
    "street": "улица Аксёнова",
    "houseNumber": 84,
    "coordinates": {
      "latitude": 54.974807639981975,
      "longitude": 82.82799862103681
    }
  },
  {
    "roomNumber": "3-к",
    "id": 331,
    "area": 287,
    "street": "2-я Складская улица",
    "houseNumber": 84,
    "coordinates": {
      "latitude": 55.06593689458622,
      "longitude": 82.91914360572612
    }
  },
  {
    "roomNumber": "2-к",
    "id": 332,
    "area": 74,
    "street": "улица Марата",
    "houseNumber": 83,
    "coordinates": {
      "latitude": 55.053456548661735,
      "longitude": 82.91233673871244
    }
  },
  {
    "roomNumber": "7-к",
    "id": 333,
    "area": 124,
    "street": "улица Чапаева",
    "houseNumber": 80,
    "coordinates": {
      "latitude": 54.98257841478632,
      "longitude": 82.94690260798761
    }
  },
  {
    "roomNumber": "4-к",
    "id": 334,
    "area": 260,
    "street": "улица Красный Факел",
    "houseNumber": 2,
    "coordinates": {
      "latitude": 54.999596626856906,
      "longitude": 83.03524529540414
    }
  },
  {
    "roomNumber": "6-к",
    "id": 335,
    "area": 222,
    "street": "Подольская улица",
    "houseNumber": 76,
    "coordinates": {
      "latitude": 54.98688912166634,
      "longitude": 82.8203324645463
    }
  },
  {
    "roomNumber": "7-к",
    "id": 336,
    "area": 216,
    "street": "Столбовая улица",
    "houseNumber": 7,
    "coordinates": {
      "latitude": 55.06372571467631,
      "longitude": 82.88547306015636
    }
  },
  {
    "roomNumber": "6-к",
    "id": 337,
    "area": 292,
    "street": "улица Артёма",
    "houseNumber": 56,
    "coordinates": {
      "latitude": 55.07038287442402,
      "longitude": 82.98209928209698
    }
  },
  {
    "roomNumber": "2-к",
    "id": 338,
    "area": 133,
    "street": "улица Перова",
    "houseNumber": 88,
    "coordinates": {
      "latitude": 55.02009455248439,
      "longitude": 82.96955975193333
    }
  },
  {
    "roomNumber": "10-к",
    "id": 339,
    "area": 42,
    "street": "Белая улица",
    "houseNumber": 61,
    "coordinates": {
      "latitude": 55.070428632218636,
      "longitude": 82.89312473377
    }
  },
  {
    "roomNumber": "2-к",
    "id": 340,
    "area": 188,
    "street": "Радиаторная улица",
    "houseNumber": 36,
    "coordinates": {
      "latitude": 55.03631578651895,
      "longitude": 82.8006547030555
    }
  },
  {
    "roomNumber": "3-к",
    "id": 341,
    "area": 48,
    "street": "улица Шмидта",
    "houseNumber": 23,
    "coordinates": {
      "latitude": 54.997486482431455,
      "longitude": 82.92722721946706
    }
  },
  {
    "roomNumber": "1-к",
    "id": 342,
    "area": 268,
    "street": "Физкультурная улица",
    "houseNumber": 54,
    "coordinates": {
      "latitude": 55.03664510596818,
      "longitude": 83.01669176035891
    }
  },
  {
    "roomNumber": "9-к",
    "id": 343,
    "area": 134,
    "street": "улица Марии Ульяновой",
    "houseNumber": 43,
    "coordinates": {
      "latitude": 55.02594980738763,
      "longitude": 83.03712854674372
    }
  },
  {
    "roomNumber": "7-к",
    "id": 344,
    "area": 189,
    "street": "улица Маяковского",
    "houseNumber": 39,
    "coordinates": {
      "latitude": 55.09692083390328,
      "longitude": 83.0124921878919
    }
  },
  {
    "roomNumber": "5-к",
    "id": 345,
    "area": 205,
    "street": "улица Тельмана",
    "houseNumber": 59,
    "coordinates": {
      "latitude": 54.97825415226514,
      "longitude": 82.89714075131435
    }
  },
  {
    "roomNumber": "1-к",
    "id": 346,
    "area": 26,
    "street": "улица Боровая Партия",
    "houseNumber": 49,
    "coordinates": {
      "latitude": 55.07322325285488,
      "longitude": 82.85466246663461
    }
  },
  {
    "roomNumber": "10-к",
    "id": 347,
    "area": 134,
    "street": "Детский автодром",
    "houseNumber": 91,
    "coordinates": {
      "latitude": 55.005415605731066,
      "longitude": 82.90105814540375
    }
  },
  {
    "roomNumber": "2-к",
    "id": 348,
    "area": 45,
    "street": "улица Громова",
    "houseNumber": 21,
    "coordinates": {
      "latitude": 55.040471747764954,
      "longitude": 83.03104414022123
    }
  },
  {
    "roomNumber": "1-к",
    "id": 349,
    "area": 296,
    "street": "Вилюйская улица",
    "houseNumber": 41,
    "coordinates": {
      "latitude": 55.06468154068708,
      "longitude": 82.84624382582922
    }
  },
  {
    "roomNumber": "2-к",
    "id": 350,
    "area": 109,
    "street": "улица Костычева",
    "houseNumber": 73,
    "coordinates": {
      "latitude": 55.00571631170241,
      "longitude": 83.01068155063254
    }
  },
  {
    "roomNumber": "6-к",
    "id": 351,
    "area": 246,
    "street": "Петропавловская улица",
    "houseNumber": 63,
    "coordinates": {
      "latitude": 55.092148645857364,
      "longitude": 82.92440743620627
    }
  },
  {
    "roomNumber": "5-к",
    "id": 352,
    "area": 111,
    "street": "улица Николая Грицюка",
    "houseNumber": 29,
    "coordinates": {
      "latitude": 55.02763790549741,
      "longitude": 82.95533825187727
    }
  },
  {
    "roomNumber": "7-к",
    "id": 353,
    "area": 80,
    "street": "Академгородок-Ключи",
    "houseNumber": 73,
    "coordinates": {
      "latitude": 55.05164314717599,
      "longitude": 82.99072092233261
    }
  },
  {
    "roomNumber": "8-к",
    "id": 354,
    "area": 92,
    "street": "улица Воеводского",
    "houseNumber": 73,
    "coordinates": {
      "latitude": 55.094675750423804,
      "longitude": 82.85648669216394
    }
  },
  {
    "roomNumber": "7-к",
    "id": 355,
    "area": 292,
    "street": "Журинская улица",
    "houseNumber": 93,
    "coordinates": {
      "latitude": 55.00169417424786,
      "longitude": 82.87116361496122
    }
  },
  {
    "roomNumber": "7-к",
    "id": 356,
    "area": 78,
    "street": "улица Фрунзе",
    "houseNumber": 44,
    "coordinates": {
      "latitude": 55.08693540172987,
      "longitude": 83.02963633425114
    }
  },
  {
    "roomNumber": "1-к",
    "id": 357,
    "area": 232,
    "street": "улица Ермака",
    "houseNumber": 4,
    "coordinates": {
      "latitude": 54.98341098383687,
      "longitude": 82.88862865775732
    }
  },
  {
    "roomNumber": "7-к",
    "id": 358,
    "area": 73,
    "street": "Рубиновая улица",
    "houseNumber": 33,
    "coordinates": {
      "latitude": 54.97710453458181,
      "longitude": 83.03166832213559
    }
  },
  {
    "roomNumber": "3-к",
    "id": 359,
    "area": 127,
    "street": "улица Кропоткина",
    "houseNumber": 17,
    "coordinates": {
      "latitude": 55.02101081773178,
      "longitude": 82.89609844260359
    }
  },
  {
    "roomNumber": "8-к",
    "id": 360,
    "area": 117,
    "street": "проспект Академика Коптюга",
    "houseNumber": 7,
    "coordinates": {
      "latitude": 55.004820099444814,
      "longitude": 82.8144543910054
    }
  },
  {
    "roomNumber": "7-к",
    "id": 361,
    "area": 161,
    "street": "Промышленная улица",
    "houseNumber": 21,
    "coordinates": {
      "latitude": 54.9797599075429,
      "longitude": 82.91861369065751
    }
  },
  {
    "roomNumber": "1-к",
    "id": 362,
    "area": 188,
    "street": "улица Фадеева",
    "houseNumber": 9,
    "coordinates": {
      "latitude": 54.971451801426426,
      "longitude": 82.92990693098285
    }
  },
  {
    "roomNumber": "10-к",
    "id": 363,
    "area": 148,
    "street": "улица Тюленина",
    "houseNumber": 28,
    "coordinates": {
      "latitude": 54.99555946201012,
      "longitude": 82.83435502591861
    }
  },
  {
    "roomNumber": "10-к",
    "id": 364,
    "area": 221,
    "street": "Ружейная улица",
    "houseNumber": 70,
    "coordinates": {
      "latitude": 54.998124809164764,
      "longitude": 82.79362268739887
    }
  },
  {
    "roomNumber": "2-к",
    "id": 365,
    "area": 267,
    "street": "улица Свободы",
    "houseNumber": 24,
    "coordinates": {
      "latitude": 54.979330862681074,
      "longitude": 82.9961430147854
    }
  },
  {
    "roomNumber": "4-к",
    "id": 366,
    "area": 83,
    "street": "улица Арбузова",
    "houseNumber": 53,
    "coordinates": {
      "latitude": 54.974217155229205,
      "longitude": 82.95000645398876
    }
  },
  {
    "roomNumber": "3-к",
    "id": 367,
    "area": 125,
    "street": "улица Зорге",
    "houseNumber": 95,
    "coordinates": {
      "latitude": 55.05654528457597,
      "longitude": 82.96752024684808
    }
  },
  {
    "roomNumber": "8-к",
    "id": 368,
    "area": 100,
    "street": "улица Солидарности",
    "houseNumber": 46,
    "coordinates": {
      "latitude": 55.06956744544307,
      "longitude": 82.85650647071363
    }
  },
  {
    "roomNumber": "5-к",
    "id": 369,
    "area": 38,
    "street": "Новоуральская улица",
    "houseNumber": 54,
    "coordinates": {
      "latitude": 55.058583873629956,
      "longitude": 82.94242475863277
    }
  },
  {
    "roomNumber": "2-к",
    "id": 370,
    "area": 85,
    "street": "Пасечная улица",
    "houseNumber": 54,
    "coordinates": {
      "latitude": 55.01549211886098,
      "longitude": 82.94795498095402
    }
  },
  {
    "roomNumber": "6-к",
    "id": 371,
    "area": 127,
    "street": "Цветной проезд",
    "houseNumber": 16,
    "coordinates": {
      "latitude": 54.983577267845234,
      "longitude": 82.98147941399723
    }
  },
  {
    "roomNumber": "8-к",
    "id": 372,
    "area": 285,
    "street": "бульвар Молодёжи",
    "houseNumber": 22,
    "coordinates": {
      "latitude": 55.04593237716768,
      "longitude": 83.00643009424039
    }
  },
  {
    "roomNumber": "2-к",
    "id": 373,
    "area": 195,
    "street": "Истринская улица",
    "houseNumber": 58,
    "coordinates": {
      "latitude": 54.98381843183852,
      "longitude": 82.97553041119458
    }
  },
  {
    "roomNumber": "6-к",
    "id": 374,
    "area": 297,
    "street": "Михайловская набережная",
    "houseNumber": 90,
    "coordinates": {
      "latitude": 55.031250949320004,
      "longitude": 82.95474468983805
    }
  },
  {
    "roomNumber": "2-к",
    "id": 375,
    "area": 102,
    "street": "улица Лыщинского",
    "houseNumber": 14,
    "coordinates": {
      "latitude": 55.015145681857355,
      "longitude": 82.80055654737907
    }
  },
  {
    "roomNumber": "4-к",
    "id": 376,
    "area": 229,
    "street": "Акмолинская улица",
    "houseNumber": 69,
    "coordinates": {
      "latitude": 55.01275277247057,
      "longitude": 83.04547571482074
    }
  },
  {
    "roomNumber": "4-к",
    "id": 377,
    "area": 128,
    "street": "улица Лейтенанта Амосова",
    "houseNumber": 18,
    "coordinates": {
      "latitude": 54.972105199597756,
      "longitude": 82.9802804389358
    }
  },
  {
    "roomNumber": "4-к",
    "id": 378,
    "area": 294,
    "street": "Ордынская улица",
    "houseNumber": 79,
    "coordinates": {
      "latitude": 54.97419623122145,
      "longitude": 82.93350297226287
    }
  },
  {
    "roomNumber": "6-к",
    "id": 379,
    "area": 219,
    "street": "1-я Грузинская улица",
    "houseNumber": 18,
    "coordinates": {
      "latitude": 55.03353520769062,
      "longitude": 83.01518503437174
    }
  },
  {
    "roomNumber": "6-к",
    "id": 380,
    "area": 159,
    "street": "улица Менделеева",
    "houseNumber": 65,
    "coordinates": {
      "latitude": 55.06996916288414,
      "longitude": 82.91231510014443
    }
  },
  {
    "roomNumber": "8-к",
    "id": 381,
    "area": 219,
    "street": "Шатурская улица",
    "houseNumber": 3,
    "coordinates": {
      "latitude": 54.99976904684314,
      "longitude": 82.8799298123132
    }
  },
  {
    "roomNumber": "7-к",
    "id": 382,
    "area": 99,
    "street": "улица Гнесиных",
    "houseNumber": 6,
    "coordinates": {
      "latitude": 55.047470320793956,
      "longitude": 82.81421657961683
    }
  },
  {
    "roomNumber": "5-к",
    "id": 383,
    "area": 123,
    "street": "Экваторная улица",
    "houseNumber": 25,
    "coordinates": {
      "latitude": 54.9992082964255,
      "longitude": 83.04249947966694
    }
  },
  {
    "roomNumber": "8-к",
    "id": 384,
    "area": 238,
    "street": "Лесосечная улица",
    "houseNumber": 34,
    "coordinates": {
      "latitude": 55.06628431417054,
      "longitude": 82.95757291894603
    }
  },
  {
    "roomNumber": "6-к",
    "id": 385,
    "area": 129,
    "street": "Рассветная улица",
    "houseNumber": 45,
    "coordinates": {
      "latitude": 55.09003921833755,
      "longitude": 82.82774287490537
    }
  },
  {
    "roomNumber": "5-к",
    "id": 386,
    "area": 135,
    "street": "улица Невельского",
    "houseNumber": 58,
    "coordinates": {
      "latitude": 54.995991521037034,
      "longitude": 82.92962024482283
    }
  },
  {
    "roomNumber": "2-к",
    "id": 387,
    "area": 142,
    "street": "улица Бетонный проезд",
    "houseNumber": 30,
    "coordinates": {
      "latitude": 55.02078893935366,
      "longitude": 83.01075959654708
    }
  },
  {
    "roomNumber": "4-к",
    "id": 388,
    "area": 256,
    "street": "улица Блюхера",
    "houseNumber": 27,
    "coordinates": {
      "latitude": 55.09425600207539,
      "longitude": 82.9905376879428
    }
  },
  {
    "roomNumber": "5-к",
    "id": 389,
    "area": 66,
    "street": "Горская улица",
    "houseNumber": 99,
    "coordinates": {
      "latitude": 55.08402783908591,
      "longitude": 82.96839972352072
    }
  },
  {
    "roomNumber": "6-к",
    "id": 390,
    "area": 137,
    "street": "Турухановская улица",
    "houseNumber": 82,
    "coordinates": {
      "latitude": 55.01110000136603,
      "longitude": 82.92540924970258
    }
  },
  {
    "roomNumber": "5-к",
    "id": 391,
    "area": 45,
    "street": "улица Ляпунова",
    "houseNumber": 65,
    "coordinates": {
      "latitude": 55.00803619312111,
      "longitude": 82.8387207885743
    }
  },
  {
    "roomNumber": "1-к",
    "id": 392,
    "area": 256,
    "street": "Кольцово — Академгородок",
    "houseNumber": 89,
    "coordinates": {
      "latitude": 55.068421569132035,
      "longitude": 83.0367824928196
    }
  },
  {
    "roomNumber": "5-к",
    "id": 393,
    "area": 84,
    "street": "улица Зелёная Горка",
    "houseNumber": 46,
    "coordinates": {
      "latitude": 54.96623014022512,
      "longitude": 83.01783749269202
    }
  },
  {
    "roomNumber": "1-к",
    "id": 394,
    "area": 86,
    "street": "Выставочная улица",
    "houseNumber": 87,
    "coordinates": {
      "latitude": 55.05272960110923,
      "longitude": 83.00072037862108
    }
  },
  {
    "roomNumber": "9-к",
    "id": 395,
    "area": 135,
    "street": "Вяземская улица",
    "houseNumber": 34,
    "coordinates": {
      "latitude": 55.05689405231534,
      "longitude": 82.98877170984244
    }
  },
  {
    "roomNumber": "2-к",
    "id": 396,
    "area": 294,
    "street": "Ладожская улица",
    "houseNumber": 76,
    "coordinates": {
      "latitude": 55.03385825760475,
      "longitude": 82.87995105556378
    }
  },
  {
    "roomNumber": "7-к",
    "id": 397,
    "area": 237,
    "street": "Белореченская улица",
    "houseNumber": 58,
    "coordinates": {
      "latitude": 54.96771036375273,
      "longitude": 82.96259842325641
    }
  },
  {
    "roomNumber": "10-к",
    "id": 398,
    "area": 38,
    "street": "улица Габова",
    "houseNumber": 49,
    "coordinates": {
      "latitude": 55.002660130250284,
      "longitude": 82.98345825406678
    }
  },
  {
    "roomNumber": "8-к",
    "id": 399,
    "area": 249,
    "street": "Тевризская улица",
    "houseNumber": 97,
    "coordinates": {
      "latitude": 55.0124218713848,
      "longitude": 82.85919915588353
    }
  },
  {
    "roomNumber": "7-к",
    "id": 400,
    "area": 16,
    "street": "7-й Магистральный переулок",
    "houseNumber": 6,
    "coordinates": {
      "latitude": 55.07573940849802,
      "longitude": 82.85925491069446
    }
  },
  {
    "roomNumber": "9-к",
    "id": 401,
    "area": 256,
    "street": "улица Сталинградской Битвы",
    "houseNumber": 54,
    "coordinates": {
      "latitude": 54.98513342168561,
      "longitude": 82.8441409771893
    }
  },
  {
    "roomNumber": "5-к",
    "id": 402,
    "area": 94,
    "street": "улица Бабаева",
    "houseNumber": 64,
    "coordinates": {
      "latitude": 54.962413314035686,
      "longitude": 83.01643830083896
    }
  },
  {
    "roomNumber": "7-к",
    "id": 403,
    "area": 132,
    "street": "Трудовая улица",
    "houseNumber": 43,
    "coordinates": {
      "latitude": 55.02087512286541,
      "longitude": 82.81707791768852
    }
  },
  {
    "roomNumber": "8-к",
    "id": 404,
    "area": 160,
    "street": "Первомайская улица",
    "houseNumber": 29,
    "coordinates": {
      "latitude": 54.96674526704902,
      "longitude": 83.01555438734779
    }
  },
  {
    "roomNumber": "1-к",
    "id": 405,
    "area": 268,
    "street": "Черносельская улица",
    "houseNumber": 25,
    "coordinates": {
      "latitude": 55.06132770605083,
      "longitude": 82.9647450512616
    }
  },
  {
    "roomNumber": "8-к",
    "id": 406,
    "area": 132,
    "street": "Зоологическая улица",
    "houseNumber": 94,
    "coordinates": {
      "latitude": 55.06343850131832,
      "longitude": 82.97743832588537
    }
  },
  {
    "roomNumber": "3-к",
    "id": 407,
    "area": 67,
    "street": "Дачное шоссе",
    "houseNumber": 60,
    "coordinates": {
      "latitude": 54.98546995728567,
      "longitude": 82.92519163654146
    }
  },
  {
    "roomNumber": "3-к",
    "id": 408,
    "area": 161,
    "street": "Лесное шоссе",
    "houseNumber": 13,
    "coordinates": {
      "latitude": 55.059889279462055,
      "longitude": 83.02755439210975
    }
  },
  {
    "roomNumber": "6-к",
    "id": 409,
    "area": 189,
    "street": "улица Ивлева",
    "houseNumber": 71,
    "coordinates": {
      "latitude": 55.01618679802464,
      "longitude": 82.85810818329482
    }
  },
  {
    "roomNumber": "1-к",
    "id": 410,
    "area": 30,
    "street": "улица Земнухова",
    "houseNumber": 71,
    "coordinates": {
      "latitude": 55.05549294496628,
      "longitude": 82.88039528658702
    }
  },
  {
    "roomNumber": "7-к",
    "id": 411,
    "area": 116,
    "street": "Радужная улица",
    "houseNumber": 57,
    "coordinates": {
      "latitude": 55.00663317933949,
      "longitude": 82.92993046409485
    }
  },
  {
    "roomNumber": "8-к",
    "id": 412,
    "area": 230,
    "street": "улица Шукшина",
    "houseNumber": 78,
    "coordinates": {
      "latitude": 55.06790713754497,
      "longitude": 82.8138392629099
    }
  },
  {
    "roomNumber": "7-к",
    "id": 413,
    "area": 252,
    "street": "Бурлинская улица",
    "houseNumber": 68,
    "coordinates": {
      "latitude": 55.079708233177875,
      "longitude": 82.88468095978
    }
  },
  {
    "roomNumber": "10-к",
    "id": 414,
    "area": 208,
    "street": "Шлюзовая улица",
    "houseNumber": 35,
    "coordinates": {
      "latitude": 55.05892773208341,
      "longitude": 82.96400635767499
    }
  },
  {
    "roomNumber": "9-к",
    "id": 415,
    "area": 278,
    "street": "Ясная улица",
    "houseNumber": 25,
    "coordinates": {
      "latitude": 54.98415470076044,
      "longitude": 83.02356880770016
    }
  },
  {
    "roomNumber": "6-к",
    "id": 416,
    "area": 82,
    "street": "улица Слюдянка",
    "houseNumber": 81,
    "coordinates": {
      "latitude": 54.97755704033216,
      "longitude": 82.96323822568766
    }
  },
  {
    "roomNumber": "8-к",
    "id": 417,
    "area": 87,
    "street": "Оршанская улица",
    "houseNumber": 94,
    "coordinates": {
      "latitude": 55.06323328867389,
      "longitude": 82.80136482922173
    }
  },
  {
    "roomNumber": "7-к",
    "id": 418,
    "area": 103,
    "street": "Штормовая улица",
    "houseNumber": 7,
    "coordinates": {
      "latitude": 54.97268711388785,
      "longitude": 83.01637612691415
    }
  },
  {
    "roomNumber": "8-к",
    "id": 419,
    "area": 119,
    "street": "Январская улица",
    "houseNumber": 72,
    "coordinates": {
      "latitude": 55.09636732374303,
      "longitude": 82.91306116861365
    }
  },
  {
    "roomNumber": "1-к",
    "id": 420,
    "area": 41,
    "street": "Снежная улица",
    "houseNumber": 100,
    "coordinates": {
      "latitude": 55.031039398612286,
      "longitude": 83.04472290757565
    }
  },
  {
    "roomNumber": "5-к",
    "id": 421,
    "area": 256,
    "street": "Ясногорская улица",
    "houseNumber": 25,
    "coordinates": {
      "latitude": 55.04842131090259,
      "longitude": 82.81022714748225
    }
  },
  {
    "roomNumber": "10-к",
    "id": 422,
    "area": 109,
    "street": "улица Космонавтов",
    "houseNumber": 57,
    "coordinates": {
      "latitude": 55.029882774534215,
      "longitude": 82.96590211025331
    }
  },
  {
    "roomNumber": "9-к",
    "id": 423,
    "area": 201,
    "street": "Дорожная улица",
    "houseNumber": 82,
    "coordinates": {
      "latitude": 55.015338880658355,
      "longitude": 82.9343225917386
    }
  },
  {
    "roomNumber": "7-к",
    "id": 424,
    "area": 270,
    "street": "Колхозная улица",
    "houseNumber": 64,
    "coordinates": {
      "latitude": 55.087993893999034,
      "longitude": 82.83419014960293
    }
  },
  {
    "roomNumber": "1-к",
    "id": 425,
    "area": 219,
    "street": "Солнечногорская улица",
    "houseNumber": 75,
    "coordinates": {
      "latitude": 55.09448921597017,
      "longitude": 82.93255719017212
    }
  },
  {
    "roomNumber": "6-к",
    "id": 426,
    "area": 150,
    "street": "Комсомольский переулок",
    "houseNumber": 16,
    "coordinates": {
      "latitude": 54.97706468594636,
      "longitude": 82.82520034081749
    }
  },
  {
    "roomNumber": "2-к",
    "id": 427,
    "area": 279,
    "street": "Рыбацкая улица",
    "houseNumber": 26,
    "coordinates": {
      "latitude": 54.98748205119293,
      "longitude": 82.7973985792456
    }
  },
  {
    "roomNumber": "1-к",
    "id": 428,
    "area": 265,
    "street": "Черёмушный переулок",
    "houseNumber": 18,
    "coordinates": {
      "latitude": 55.06512770213673,
      "longitude": 82.84451225969552
    }
  },
  {
    "roomNumber": "9-к",
    "id": 429,
    "area": 72,
    "street": "Васильковый переулок",
    "houseNumber": 58,
    "coordinates": {
      "latitude": 54.97917134252071,
      "longitude": 82.98233872887783
    }
  },
  {
    "roomNumber": "1-к",
    "id": 430,
    "area": 76,
    "street": "Зелёная улица",
    "houseNumber": 26,
    "coordinates": {
      "latitude": 54.98393338431049,
      "longitude": 82.97994173355573
    }
  },
  {
    "roomNumber": "10-к",
    "id": 431,
    "area": 57,
    "street": "Черёмушная улица",
    "houseNumber": 45,
    "coordinates": {
      "latitude": 55.01500090085385,
      "longitude": 82.88619366889854
    }
  },
  {
    "roomNumber": "8-к",
    "id": 432,
    "area": 183,
    "street": "Васильковая улица",
    "houseNumber": 4,
    "coordinates": {
      "latitude": 55.09204755089646,
      "longitude": 83.02594929090623
    }
  },
  {
    "roomNumber": "10-к",
    "id": 433,
    "area": 138,
    "street": "Лесная улица",
    "houseNumber": 9,
    "coordinates": {
      "latitude": 54.973283694228265,
      "longitude": 83.01521571119068
    }
  },
  {
    "roomNumber": "7-к",
    "id": 434,
    "area": 219,
    "street": "Баргузинская улица",
    "houseNumber": 63,
    "coordinates": {
      "latitude": 54.975447742879155,
      "longitude": 82.79545837892802
    }
  },
  {
    "roomNumber": "5-к",
    "id": 435,
    "area": 142,
    "street": "улица Герцена",
    "houseNumber": 50,
    "coordinates": {
      "latitude": 54.98068384660947,
      "longitude": 82.850920489901
    }
  },
  {
    "roomNumber": "4-к",
    "id": 436,
    "area": 138,
    "street": "Кленовая улица",
    "houseNumber": 13,
    "coordinates": {
      "latitude": 54.97093070511951,
      "longitude": 82.96948893731701
    }
  },
  {
    "roomNumber": "7-к",
    "id": 437,
    "area": 186,
    "street": "улица Терешковой",
    "houseNumber": 41,
    "coordinates": {
      "latitude": 55.044494037419724,
      "longitude": 83.01546378618355
    }
  },
  {
    "roomNumber": "4-к",
    "id": 438,
    "area": 112,
    "street": "2-я Рощинская улица",
    "houseNumber": 28,
    "coordinates": {
      "latitude": 55.059256109939334,
      "longitude": 83.03983643296262
    }
  },
  {
    "roomNumber": "8-к",
    "id": 439,
    "area": 81,
    "street": "2-я Моховая улица",
    "houseNumber": 68,
    "coordinates": {
      "latitude": 55.00307793791412,
      "longitude": 82.84833289501479
    }
  },
  {
    "roomNumber": "3-к",
    "id": 440,
    "area": 221,
    "street": "Иртышская улица",
    "houseNumber": 76,
    "coordinates": {
      "latitude": 55.088681474774944,
      "longitude": 82.89320618152404
    }
  },
  {
    "roomNumber": "3-к",
    "id": 441,
    "area": 278,
    "street": "Абхазская улица",
    "houseNumber": 9,
    "coordinates": {
      "latitude": 54.98253337905996,
      "longitude": 82.98921834074359
    }
  },
  {
    "roomNumber": "2-к",
    "id": 442,
    "area": 283,
    "street": "Российская улица",
    "houseNumber": 30,
    "coordinates": {
      "latitude": 55.042063173338015,
      "longitude": 82.95419816435984
    }
  },
  {
    "roomNumber": "10-к",
    "id": 443,
    "area": 228,
    "street": "Дамба Новосибирской ГЭС",
    "houseNumber": 60,
    "coordinates": {
      "latitude": 55.081224878928474,
      "longitude": 82.80393378722323
    }
  },
  {
    "roomNumber": "3-к",
    "id": 444,
    "area": 69,
    "street": "тропинка академика Б. В. Войцеховского",
    "houseNumber": 30,
    "coordinates": {
      "latitude": 55.04973883845633,
      "longitude": 82.86723822966766
    }
  },